Sensor Locations,Lat,Long
ABM01_A10_HRL_CP_S102,52.424886,4.894044
ABM01__A10_LiafrS112_S112NZ_ZO,52.334974,4.936718
ABM01__TF_S108_ingaand,52.337799,4.859481
ABM01__TF_S108_uitgaand,52.336935,4.868636
ABM01__TF_S109_ingaand,52.333281,4.898738
ABM01__TF_S109_uitgaand,52.33823,4.876483
ABM01_A10_knpNM_ReafrS107,52.337944,4.845133
ABM01_A10_LIafrA10_ReafrS113,52.348443,4.970851
ABM01_A10_LiafrS102_LitoeS103,52.395686,4.844055
ABM01_A10_LiafrS107_A4reS107,52.348475,4.841233
ABM01_A10_LiafrS107_LiafrS108,52.348571,4.841271
ABM01_A10_LiafrS107_Riekerpolder,52.348308,4.841036
ABM01_A10_LiafrS108_LiafrS109,52.337754,4.857303
ABM01_A10_LiafrS108_ZAErnst,52.337752,4.857274
ABM01_A10_LiafrS108_ZAMahler,52.337755,4.857333
ABM01_A10_LiafrS108_ZAStrawinskyl,52.337754,4.857318
ABM01_A10_LiafrS109_LiafrS122,52.336026,4.891131
ABM01_A10_LiafrS109_ZAErnst,52.336108,4.890966
ABM01_A10_LiafrS112_GWEG_in,52.334993,4.936768
ABM01_A10_LitoeS103_LiafrS106,52.379946,4.844586
ABM01_A10_LitoeS108_LiafrS109,52.337042,4.857712
ABM01_A10_litoeS116_knpt_CP,52.408544,4.935426
ABM01_A10_PC1086_RetoeS114,52.362748,4.979926
ABM01_A10_re_toeS116_afrS114,52.405268,4.945817
ABM01_A10_ReafrS108_A2_ReafrS107,52.33917,4.867221
ABM01_A10_ReafrS108_ZAErnst,52.339178,4.867412
ABM01_A10_ReafrS109_ReafrS108,52.33377,4.897818
ABM01_A10_ReafrS109_ZAMahler,52.333769,4.897818
ABM01_A10_ReafrS112_Entree,52.337368,4.942773
ABM01_A10_ReafrS112_GooisewZN,52.337419,4.942957
ABM01_A10_ReafrS112_S112NZ_ZO,52.337458,4.943132
ABM01_A10_ReafrS113_ReafrS112,52.342589,4.95444
ABM01_A10_ReafrS114_PC1086,52.367789,4.97224
ABM01_A10_ReafrS116_S116NZ,52.410009,4.931409
ABM01_A10_reafrS116_toeS116,52.410061,4.931307
ABM01_A10_RetoeS108_knpNM,52.339088,4.858129
ABM01_A10_RetoeS109_ReafrS108,52.337579,4.891297
ABM01_A10_RetoeS112_ReafrS109,52.335359,4.93707
ABM01_A10_RetoeS114_ReafrS113,52.363069,4.969705
ABM01_A10_S106WO_LitoeS106,52.357869,4.841082
ABM01_A10li_LiafrS106_LitoeS106,52.36199,4.842255
ABM01_A10li_LitoeS106_LiafrS107,52.354031,4.84249
ABM01_A2_LIafrA9_AMC,52.279773,4.953442
ABM01_A2_LIafrN522_Bijlmerdreef,52.308204,4.928039
ABM01_A2_LIafrN522_Entree,52.308181,4.928062
ABM01_A2_reafrN522_Bijlmerdreef,52.312222,4.923431
ABM01_A2_reafrN522_Entree,52.312281,4.92337
ABM01_A4_LiafrSloten_LiknptNM,52.333926,4.805059
ABM01_A4_LiafrSloten_Riekerpolder,52.334072,4.805298
ABM01_A4_LiBHD_LiafrSloten,52.324701,4.774874
ABM01_A4_LiknptNM_LiafrS108,52.338222,4.829433
ABM01_A8_afrLiOostz_LiafrS102,52.437503,4.861497
ABM01_A8_afrLiOostz_ReafrS116,52.43748,4.861522
ABM01_A9_liafrS111_A9_liafrS112,52.299546,4.947535
ABM01_A9_liafrS112_Bijlmerdreef,52.306647,4.96816
ABM01_A9_reafrS112_A9_reafrS111,52.310421,4.978717
ABM01_A9li_knp_hlnd_AMC,52.285893,4.939138
ABM01_ABM01_A4_ReafrSloten_Riekerp,52.338788,4.820988
ABM01_afrit_A10Li_s102,52.395386,4.843973
ABM01_afrit_A10re_S103,52.380005,4.844856
ABM01_AV_Beneluxbaan_Boelelaan_Nijenrode,52.334879,4.868655
ABM01_AV_Beneluxbaan_Nijenrode_Boelelaan,52.327943,4.869046
ABM01_HR_1-3.b,52.324107,5.063391
ABM01_HR_1-B.b,52.3241,5.063418
ABM01_HR_1-C.b,52.32411,5.063377
ABM01_HR_1-G.a,52.32409,5.063459
ABM01_HR_1-G.b,52.324114,5.063364
ABM01_HR_2-A.b,52.266577,4.961714
ABM01_HR_2-D,52.266696,4.961649
ABM01_HR_2-E.a,52.266611,4.961695
ABM01_HR_2-E.b,52.266619,4.961691
ABM01_HR_3-1.b,52.266785,4.696283
ABM01_HR_3-2.b,52.266731,4.696207
ABM01_HR_3-E,52.266772,4.696264
ABM01_HR_4-A.a,52.378341,4.708302
ABM01_HR_4-A.b,52.378337,4.708544
ABM01_HR_4-B.a,52.378373,4.708538
ABM01_HR_4-B.b,52.378315,4.708306
ABM01_HR_4-I.a,52.378306,4.708307
ABM01_HR_4-I.b,52.378346,4.708543
ABM01_HR_5-1.a,52.437955,4.86099
ABM01_HR_5-A,52.437925,4.861023
ABM01_HR_5-B.a,52.437911,4.86104
ABM01_HR_5-B.b,52.438674,4.860193
ABM01_HR_5-C.a,52.438697,4.860168
ABM01_HR_5-C.b,52.437933,4.861015
ABM01_HR_6-A,52.421731,4.953023
ABM01_HR_6-B.b,52.421621,4.952565
ABM01_HR_6-G.a,52.421617,4.952607
ABM01_HR_6-G.b,52.421624,4.952634
ABM01_HR_A-6,52.391595,4.836403
ABM01_HR_B-1.b,52.372365,4.93391
ABM01_HR_B-6.a,52.371741,4.911223
ABM01_HR_B-6.b,52.372375,4.933951
ABM01_HR_G-6.a,52.320712,4.948061
ABM01_HR_G-6.b,52.320694,4.94801
ABM01_HR_I-4.a,52.342544,4.827561
ABM01_IR_A-B.a,52.391593,4.836535
ABM01_IR_A-B.b,52.384671,4.834837
ABM01_IR_A-C.A,52.384673,4.834911
ABM01_IR_A-C.b,52.384673,4.834955
ABM01_IR_A-D.b,52.391592,4.836638
ABM01_IR_A-E,52.384673,4.834925
ABM01_IR_A-G.a,52.384671,4.834808
ABM01_IR_A-G.b,52.391593,4.836579
ABM01_IR_A-I.a,52.384672,4.834852
ABM01_IR_A-I.b,52.384766,4.833985
ABM01_IR_B-A.a,52.390868,4.884827
ABM01_IR_B-A.b,52.385143,4.881213
ABM01_IR_B-C.a,52.37173,4.874086
ABM01_IR_B-C.b,52.360289,4.908324
ABM01_IR_B-D.a,52.359993,4.908596
ABM01_IR_B-D.b,52.35866,4.90382
ABM01_IR_B-E,52.3601,4.886753
ABM01_IR_B-G.a,52.359984,4.908601
ABM01_IR_B-G.b,52.358651,4.903825
ABM01_IR_B-I.a,52.363755,4.878547
ABM01_IR_B-I.b,52.361319,4.884534
ABM01_IR_C-A.a,52.361098,4.884998
ABM01_IR_C-A.b,52.358285,4.878573
ABM01_IR_C-B.a,52.361092,4.885009
ABM01_IR_C-B.b,52.360067,4.886964
ABM01_IR_C-D.a,52.360085,4.886917
ABM01_IR_C-D.b,52.355978,4.880007
ABM01_IR_C-E,52.35597,4.880015
ABM01_IR_C-G.b,52.360043,4.887014
ABM01_IR_C-I.a,52.358087,4.878327
ABM01_IR_C-I.b,52.356144,4.879771
ABM01_IR_D-A.a,52.348232,4.917675
ABM01_IR_D-A.b,52.348251,4.919705
ABM01_IR_D-B.a,52.348638,4.918557
ABM01_IR_D-B.b,52.348242,4.917698
ABM01_IR_D-C.a,52.348662,4.918494
ABM01_IR_D-C.b,52.348221,4.917652
ABM01_IR_D-E.a,52.348187,4.917583
ABM01_IR_D-E.b,52.348116,4.919412
ABM01_IR_D-G.a,52.348075,4.919334
ABM01_IR_D-I.a,52.348122,4.919423
ABM01_IR_E-A,52.335076,4.868539
ABM01_IR_E-B,52.341036,4.877078
ABM01_IR_E-C,52.341045,4.877078
ABM01_IR_E-D.a,52.335053,4.878921
ABM01_IR_E-G.a,52.335052,4.878892
ABM01_IR_E-H.a,52.334903,4.868655
ABM01_IR_E-H.b,52.335076,4.868525
ABM01_IR_E-I,52.335076,4.868554
ABM01_IR_F-A.a,52.307174,4.760546
ABM01_IR_F-A.b,52.307112,4.760368
ABM01_IR_F-B.a,52.307165,4.760521
ABM01_IR_F-B.b,52.307138,4.760444
ABM01_IR_F-C.a,52.307103,4.760342
ABM01_IR_F-C.b,52.307174,4.760496
ABM01_IR_F-D.a,52.307188,4.760584
ABM01_IR_F-D.b,52.30717,4.760533
ABM01_IR_F-E.a,52.307107,4.760355
ABM01_IR_F-E.b,52.307197,4.76061
ABM01_IR_F-G.b,52.30722,4.76067
ABM01_IR_G-A.b,52.320716,4.948074
ABM01_IR_G-B.a,52.32067,4.947939
ABM01_IR_G-B.b,52.312425,4.935979
ABM01_IR_G-C.b,52.320665,4.947926
ABM01_IR_G-D.a,52.320687,4.94799
ABM01_IR_G-D.b,52.312429,4.935992
ABM01_IR_G-E.a,52.312421,4.935966
ABM01_IR_G-E.b,52.320699,4.948023
ABM01_IR_G-I.a,52.320678,4.947964
ABM01_IR_H-A.a,52.300734,4.870572
ABM01_IR_H-B.a,52.300709,4.870556
ABM01_IR_H-B.b,52.303189,4.857048
ABM01_IR_H-C.a,52.30357,4.857143
ABM01_IR_H-C.b,52.300667,4.870529
ABM01_IR_H-D.b,52.300717,4.870562
ABM01_IR_H-E.b,52.303529,4.857157
ABM01_IR_H-G.a,52.300725,4.870567
ABM01_IR_H-G.b,52.303225,4.857046
ABM01_IR_H-I.a,52.30075,4.870583
ABM01_IR_H-I.b,52.303243,4.857045
ABM01_IR_I-A.a,52.342699,4.827848
ABM01_IR_I-A.b,52.34269,4.827849
ABM01_IR_I-B.a,52.342645,4.827851
ABM01_IR_I-B.b,52.342717,4.827848
ABM01_IR_I-C.a,52.342708,4.827848
ABM01_IR_I-C.b,52.342663,4.82785
ABM01_IR_I-D.b,52.342681,4.827849
ABM01_IR_I-E,52.342735,4.827848
ABM01_IR_I-G.b,52.342535,4.827561
ABM01_N235_PC1441_LiAB6,52.49667,4.951799
ABM01_N247_A10_litoeS116,52.40923,4.940899
ABM01_N247_A10_retoeS116,52.409206,4.940879
ABM01_N247_Edam_LiAB6,52.50975,5.043637
ABM01_N247_LiAB6_LiS116,52.421296,4.95146
ABM01_N247_LiS116_litoeS116,52.40927,4.940934
ABM01_S102_Toerit_A10re,52.391643,4.844752
ABM01_S103_A10re_Kimpoweg,52.384991,4.845153
ABM01_S103_LiAB4_toeA10Li,52.385763,4.717239
ABM01_S103_PC1013_LitoeS103,52.39042,4.881579
ABM01_S103_toeA10Li_LitoeS103,52.384798,4.842654
ABM01_S106_krS106-S108_Waterloopl,52.357689,4.855648
ABM01_S106_LiafrS106_krS106-S108,52.362026,4.842255
ABM01_S106_pc1065_S106WO,52.357322,4.827545
ABM01_S108_A-damsewegZN_krAmstelv-Nijerodew,52.315466,4.856943
ABM01_S108_krAmstelv-Boele_krAmstelv-Stadionw,52.33512,4.857678
ABM01_S108_krAmstelv-Nijerodew_krAmstelv-Boele,52.327698,4.857486
ABM01_S108_krAmstelv-Stadionw_krParn-Stadionw,52.344946,4.856808
ABM01_S108_krBeeth-Stadionw_krParn-Stadionw,52.346936,4.876885
ABM01_S108_krParn-Stadionw_krAmstelv-Stadionw,52.34652,4.867081
ABM01_S108_krParn-Stadionw_krBeeth-Stadionw,52.346359,4.867016
ABM01_S108_krS106-S108_krAmstelv-Stadionw,52.35734,4.854839
ABM01_S109_K-burgZN_krBuitenv-Nijerodew,52.315826,4.871067
ABM01_S109_krAmstelv-Nijerodew_krBuitenv-Nijerodew,52.327745,4.8575
ABM01_S109_krBeeth-Stadionw_krEblvrd-Kenlaan,52.346824,4.876938
ABM01_S109_krBuitenv-Nijenrodew_Strawinsky,52.327934,4.869046
ABM01_S109_krBuitenv-Nijerodew_krAmstelv-Nijerodew,52.32786,4.868869
ABM01_S109_krBuitenv-Nijerodew_krEblvrd-Nijerodew,52.327784,4.868835
ABM01_S109_krEblvrd-Boele_krEblvrd-Kenlaan,52.33466,4.890211
ABM01_S109_krEblvrd-Boele_krEblvrd-Nijerodew,52.334666,4.889786
ABM01_S109_krEblvrd-Kenlaan_krBeeth-Stadionw,52.340731,4.892537
ABM01_S109_krEblvrd-Kenlaan_krEblvrd-Boele,52.340852,4.892076
ABM01_S109_krEblvrd-Nijerodew_krBuitenv-Nijerodew,52.328792,4.889966
ABM01_S109_krEblvrd-Nijerodew_krEblvrd-Boele,52.328706,4.890042
ABM01_S112_GooisewZN_Waterloopl,52.338695,4.939262
ABM01_S112NZ_ZO_Bijlmerdreef,52.335858,4.943861
ABM01_S116_PC1031_S116NZ,52.391113,4.910639
ABM01_S116_PC1031_S116ZN,52.391121,4.910712
ABM01_S116_S116NZ_Waterloopl,52.388905,4.918204
ABM01_S116_S116ZN_litoeS116,52.391723,4.922342
ABM01_SR_1-4.a,52.324124,5.063323
ABM01_SR_1-D,52.324104,5.063405
ABM01_SR_1-E.a,52.324097,5.063432
ABM01_SR_2-B.a,52.26673,4.96163
ABM01_SR_2-C.a,52.266705,4.961644
ABM01_SR_2-C.b,52.266679,4.961658
ABM01_SR_2-G.b,52.266662,4.961668
ABM01_SR_2-I.a,52.266713,4.96164
ABM01_SR_3-6.a,52.266751,4.696236
ABM01_SR_3-B.b,52.266765,4.696255
ABM01_SR_3-D.a,52.266697,4.696159
ABM01_SR_4-6.b,52.378203,4.708565
ABM01_SR_4-C.a,52.378391,4.708535
ABM01_SR_4-D.a,52.378333,4.708303
ABM01_SR_4-D.b,52.378328,4.708545
ABM01_SR_4-E.b,52.378297,4.708308
ABM01_SR_5-6,52.437962,4.860982
ABM01_SR_5-D.a,52.437977,4.860965
ABM01_SR_5-D.b,52.43797,4.860973
ABM01_SR_5-G.a,52.437918,4.861032
ABM01_SR_6-5,52.421613,4.952594
ABM01_SR_6-C.a,52.421609,4.95258
ABM01_SR_6-C.b,52.42162,4.952621
ABM01_SR_6-E.b,52.421642,4.952613
ABM01_SR_6-I.a,52.421637,4.952601
ABM01_SR_E-6.a,52.335051,4.878877
ABM01_SR_F-6.a,52.307143,4.760457
ABM01_SR_F-6.b,52.307156,4.760495
ABM01_SR_G-4.a,52.320707,4.948048
ABM01_SR-C-6.a,52.359935,4.887233
ABM01_SR-C-6.b,52.358269,4.878586
ABM01_SR-D-6.a,52.348652,4.918519
ABM01_SR-D-6.b,52.348052,4.919289
ABM01_ZA_krAmstelv-Boele_krBuitenv-Boele,52.335113,4.857593
ABM01_ZA_krBeeth-Stadionw_krLeijenb-Boele,52.346932,4.876787
ABM01_ZA_krBuitenv-Boele_krAmstelv-Boele,52.335075,4.868956
ABM01_ZA_krBuitenv-Boele_krLeijenb-Boele,52.334995,4.868858
ABM01_ZA_krEblvrd-Boele_krLeijenb-Boele,52.33471,4.889864
ABM01_ZA_krLeijenb-Boele_krAmstelv-Stadionw,52.335094,4.857779
ABM01_ZA_krLeijenb-Boele_krBeeth-Stadionw,52.335119,4.8787
ABM01_ZA_krLeijenb-Boele_krBuitenv-Boele,52.335104,4.878522
ABM01_ZA_krLeijenb-Boele_krEblvrd-Boele,52.335037,4.878627
ABM01_ZA_krParn-Stadionw_krBuitenv-Boele,52.346368,4.867118
GAD01_MOA_Route002,52.3945694,4.86373615
GAD01_MOA_Route003,52.39301682,4.86999178
GAD01_MOA_Route004,52.38961411,4.89123487
GAD01_MOA_Route005,52.39262772,4.86272383
GAD01_MOA_Route006,52.39160919,4.84562397
GAD01_MOA_Route007,52.39131546,4.81939507
GAD01_MOA_Route008,52.38431168,4.81922817
GAD01_MOA_Route009,52.38485718,4.84713507
GAD01_MOA_Route010,52.38521576,4.88101578
GAD01_MOA_Route017,52.33785248,4.89221811
GAD01_MOA_Route018,52.35786819,4.90415478
GAD01_MOA_Route019,52.33784866,4.91071987
GAD01_MOA_Route021,52.33992386,4.93758297
GAD01_MOA_Route022,52.34830856,4.91968822
GAD01_MOA_Route023,52.34873199,4.91845417
GAD01_MOA_Route024,52.35988617,4.90863419
GAD01_MOA_Route028,52.37248993,4.93436193
GAD01_MOA_Route029,52.40599823,4.93696117
GAD01_MOA_Route030,52.3860054,4.91349888
GAD01_MOA_Route031,52.38674164,4.91467094
GAD01_MOA_Route032,52.36924362,4.90595102
GAD01_MOA_Route033,52.37612915,4.92155981
GAD01_MOA_Route038,52.39019775,4.88479185
GAD01_MOA_Route040,52.38486862,4.88147402
GAD01_MOA_Route041,52.37425613,4.8752718
GAD01_MOA_Route042,52.3739624,4.87499285
GAD01_MOA_Route043,52.36400604,4.87883997
GAD01_MOA_Route044,52.36355591,4.87895679
GAD01_MOA_Route045,52.36016083,4.88676786
GAD01_MOA_Route046,52.35998535,4.88705778
GAD01_MOA_Route047,52.35872269,4.9034071
GAD01_MOA_Route048,52.36022186,4.91063881
GAD01_MOA_Route049,52.36328125,4.92204189
GAD01_MOA_Route050,52.36390305,4.92344809
GAD01_MOA_Route051,52.37236023,4.93359089
GAD01_MOA_Route052,52.37638855,4.92144394
GAD01_MOA_Route053,52.38936234,4.89137793
GAD01_MOA_Route058,52.37319565,4.93317699
GAD01_MOA_Route059,52.37617111,4.92201185
GAD01_MOA_Route068,52.36621094,4.94481993
GAD01_MOA_Route071,52.36526871,4.94901991
GAD01_MOA_Route072,52.37038422,4.96226501
GAD01_MOA_Route074,52.3893013,4.96581984
GAD01_MOA_Route075,52.37230301,4.96243
GAD01_MOA_Route076,52.36596298,4.97517395
GAD01_MOA_Route077,52.35306549,4.99962282
GAD01_MOA_Route078,52.35270309,4.99969721
GAD01_MOA_Route090,52.34817123,4.91757584
GAD01_MOA_Route094,52.34700012,4.87932014
GAD01_MOA_Route095,52.35739899,4.85492992
GAD01_MOA_Route099,52.39197159,4.84307718
GAD01_MOA_Route100,52.3911438,4.81840801
GAD01_MOA_Route116,52.36043167,4.90861177
GAD01_MOA_Route118_L,52.31271362,4.9370718
GAD01_MOA_Route119_L,52.31549835,4.94574785
GAD01_MOA_Route11A,52.37210083,4.84440279
GAD01_MOA_Route11B,52.37466812,4.85907507
GAD01_MOA_Route120_M,52.32318497,4.95479202
GAD01_MOA_Route122_M,52.30722809,4.97152281
GAD01_MOA_Route123_M,52.29237366,4.945539
GAD01_MOA_Route124_M,52.31020355,4.9380641
GAD01_MOA_Route125_M,52.30121994,4.9459362
GAD01_MOA_Route12A,52.3741684,4.87490416
GAD01_MOA_Route12B,52.37459946,4.85800982
GAD01_MOA_Route131_L,52.33493423,4.869102
GAD01_MOA_Route132_M,52.33475876,4.889328
GAD01_MOA_Route133_L,52.32890701,4.89023685
GAD01_MOA_Route134_M,52.33684921,4.85740519
GAD01_MOA_Route135_L,52.33512497,4.87817717
GAD01_MOA_Route136_L,52.32803345,4.85758209
GAD01_MOA_Route138_L,52.33732605,4.89158297
GAD01_MOA_Route139_L,52.40017319,4.84789705
GAD01_MOA_Route13A,52.35783386,4.84547186
GAD01_MOA_Route13B,52.35778427,4.85597897
GAD01_MOA_Route140_R,52.38303375,4.84496593
GAD01_MOA_Route142_R,52.34088135,4.9523778
GAD01_MOA_Route143_L,52.3555336,4.96595478
GAD01_MOA_Route144_R,52.38028336,4.97297812
GAD01_MOA_Route145_L,52.40237045,4.95302582
GAD01_MOA_Route146_R,52.41695786,4.91632605
GAD01_MOA_Route14A,52.36373138,4.87871695
GAD01_MOA_Route14B,52.35810089,4.85212994
GAD01_MOA_Route15A,52.34215164,4.85775185
GAD01_MOA_Route15B,52.34889984,4.88363981
GAD01_MOA_Route16A,52.3599205,4.88656092
GAD01_MOA_Route27A,52.36840057,4.97089481
GAD01_MOA_Route27B,52.37233353,4.96168804
GAD01_MOA_Route36A_M,52.30881119,4.9703331
GAD01_MOA_Route37A,52.33610153,4.94339085
GAD01_MOA_Route37B_L,52.32220078,4.95822096
GAD01_MOA_Route54B,52.34680176,4.88040018
GAD03_1001_1002,52.298509,4.972871
GAD03_1001_2002,52.298514,4.972751
GAD03_1001_334,52.298715,4.97275
GAD03_1001_975,52.393136,4.867623
GAD03_1001_980,52.39322,4.867617
GAD03_1002_1001,52.301646,4.978552
GAD03_1002_2003,52.301497,4.978836
GAD03_1002_346,52.301564,4.978905
GAD03_1003_1008,52.316395,4.963817
GAD03_1003_1020,52.316299,4.963738
GAD03_1003_2004,52.3164,4.963864
GAD03_1004_1007,52.324318,4.956575
GAD03_1004_1008,52.324297,4.956434
GAD03_1004_317,52.324289,4.95661
GAD03_1005_1006,52.330221,4.951411
GAD03_1005_1007,52.330084,4.951284
GAD03_1006_1005,52.331295,4.950219
GAD03_1006_480,52.331427,4.95033
GAD03_1007_1004,52.325559,4.95535
GAD03_1007_1005,52.325814,4.955377
GAD03_1007_306,52.325593,4.955321
GAD03_1008_1003,52.320541,4.959886
GAD03_1008_1004,52.320731,4.959881
GAD03_1008_2005,52.320442,4.959946
GAD03_101_102-1,52.385014,4.881563
GAD03_101_132,52.385109,4.881385
GAD03_101_144,52.385022,4.881566
GAD03_101_906,52.385056,4.881649
GAD03_1010_1014,52.399077,4.92844
GAD03_1010_1015,52.398977,4.928761
GAD03_1010_2001,52.399086,4.928425
GAD03_1011_1013,52.391477,4.921734
GAD03_1011_1014,52.391434,4.922101
GAD03_1011_201,52.391493,4.921723
GAD03_1012_1013,52.38712,4.915552
GAD03_1012_402,52.387212,4.915341
GAD03_1013_1011,52.389236,4.919671
GAD03_1013_1012,52.389454,4.919146
GAD03_1013_201,52.389261,4.91972
GAD03_1014_1010,52.39531,4.924754
GAD03_1014_1011,52.395589,4.924541
GAD03_1014_2001,52.39531,4.924781
GAD03_1015_1010,52.403499,4.933905
GAD03_1015_225,52.403284,4.934524
GAD03_1015_239,52.403247,4.934471
GAD03_1016_1017,52.360584,4.911068
GAD03_1016_432,52.360519,4.911083
GAD03_1017_1016,52.359186,4.906395
GAD03_1017_1018,52.413584,4.878266
GAD03_1017_216,52.413292,4.879428
GAD03_1017_410-2,52.359148,4.906329
GAD03_1017_528,52.359275,4.906288
GAD03_1018_1017,52.409554,4.886966
GAD03_1018_1020,52.309936,4.969745
GAD03_1018_208,52.409731,4.886315
GAD03_1018_323,52.309917,4.969765
GAD03_1018_342-2,52.309964,4.969532
GAD03_1019_1020,52.409085,4.915605
GAD03_1019_1109,52.409074,4.915028
GAD03_1019-237,52.409285,4.914961
GAD03_1020_1003,52.313833,4.966226
GAD03_1020_1018,52.313843,4.966005
GAD03_1020_1019,52.410512,4.912401
GAD03_1020_1021,52.410356,4.912666
GAD03_1020_323-1,52.313848,4.965988
GAD03_102-1_101,52.384869,4.883338
GAD03_1021_1020,52.414564,4.911716
GAD03_102-1_102-2,52.384685,4.883036
GAD03_1021_230,52.414324,4.911746
GAD03_102-2_102-1,52.385369,4.88418
GAD03_1022_1023,52.38862,4.960511
GAD03_102-2_103,52.385199,4.883863
GAD03_1022_246-1,52.38872,4.959958
GAD03_1022_450,52.370795,4.962303
GAD03_1022_467,52.370419,4.962417
GAD03_1023_1022,52.392426,4.957134
GAD03_1023_244,52.391971,4.957492
GAD03_1024_1025,52.322801,4.974067
GAD03_1024_1131,52.322572,4.973432
GAD03_1024_340,52.322814,4.973444
GAD03_1025_1024,52.326299,4.970266
GAD03_1025_1130,52.326436,4.969602
GAD03_1025-1026,52.326054,4.970128
GAD03_1026_1025,52.328045,4.972583
GAD03_1026_1027,52.327935,4.972562
GAD03_1027_1026,52.331134,4.975323
GAD03_1027_1028,52.330813,4.975321
GAD03_103_102-2,52.383005,4.888467
GAD03_103_1103,52.382988,4.888209
GAD03_1031-479,52.339464,4.955405
GAD03_1032_337,52.313363,4.983376
GAD03_1033_422,52.363552,4.922548
GAD03_1034_325,52.305436,4.942198
GAD03_1034_362,52.305521,4.94186
GAD03_1035_305,52.325485,4.929801
GAD03_1036_1035,52.326592,4.928987
GAD03_1037_304,52.330221,4.925691
GAD03_1038_1037,52.331664,4.924322
GAD03_1039_1040,52.334289,4.922921
GAD03_104_109,52.379881,4.894917
GAD03_104_1103,52.379708,4.89483
GAD03_104_117,52.379634,4.894953
GAD03_1040_1041,52.338041,4.921784
GAD03_1041_1042,52.339414,4.920731
GAD03_1042_1043,52.34146,4.919403
GAD03_1043_1042,52.342955,4.918558
GAD03_1043_1044,52.342845,4.918735
GAD03_1044_1043,52.343909,4.918587
GAD03_1044_1045,52.343708,4.918336
GAD03_1045_1044,52.345872,4.920571
GAD03_1045_415,52.345847,4.92043
GAD03_1045_436,52.345792,4.920594
GAD03_1046_651,52.334874,4.912366
GAD03_1047_692,52.328688,4.889368
GAD03_1047_694,52.328978,4.889818
GAD03_1048_654,52.34442,4.887283
GAD03_1048_655,52.344415,4.887461
GAD03_105_106,52.376993,4.903821
GAD03_105_459,52.376879,4.903721
GAD03_1056_678,52.316453,4.857044
GAD03_1057_1058,52.331793,4.857445
GAD03_1058_1057,52.333021,4.857481
GAD03_1058_1059,52.332967,4.857484
GAD03_1059_1060,52.333585,4.85743
GAD03_106_105,52.37619,4.903161
GAD03_106_806,52.3763,4.903158
GAD03_1060_688,52.334199,4.857464
GAD03_1061_660,52.345219,4.858747
GAD03_1061_679-2,52.345456,4.859359
GAD03_1062_859,52.347897,4.797718
GAD03_1062_865,52.347958,4.798589
GAD03_1063_1064,52.350679,4.810789
GAD03_1063_859,52.350919,4.811676
GAD03_1064_1063,52.351337,4.816284
GAD03_1064_1065,52.351272,4.815556
GAD03_1065_1064,52.351422,4.824357
GAD03_1065_913,52.417196,4.826092
GAD03_1065_949,52.351364,4.823944
GAD03_1066_1067,52.400065,4.851208
GAD03_1066_913,52.399958,4.851796
GAD03_1067_1066,52.394165,4.864586
GAD03_1068_203-1,52.391122,4.91101
GAD03_1068_207,52.391241,4.911352
GAD03_1069_227,52.399395,4.93371
GAD03_1069_240,52.399142,4.933429
GAD03_107_106,52.376887,4.901777
GAD03_1070_1071,52.387776,4.924149
GAD03_1070_228,52.3874,4.923739
GAD03_1071_1070,52.383085,4.910038
GAD03_1072_1073,52.39771,4.925819
GAD03_1073_1072,52.397106,4.927492
GAD03_1073_227,52.397133,4.926881
GAD03_1074_1075,52.394814,4.932899
GAD03_1074_227,52.394793,4.933295
GAD03_1075_1074,52.392283,4.957644
GAD03_1075_1076,52.392094,4.956957
GAD03_1076_1075,52.394154,4.964489
GAD03_1077_449,52.366183,4.946462
GAD03_1077_450,52.366179,4.945959
GAD03_1078_357,52.303263,4.948206
GAD03_1079_1080,52.306175,4.945666
GAD03_1079_357,52.306223,4.945358
GAD03_108_107,52.376899,4.898236
GAD03_1080_1079,52.307871,4.943851
GAD03_1080_1081,52.30779,4.944165
GAD03_1081_1080,52.308295,4.943462
GAD03_1081_326-1,52.308227,4.943758
GAD03_1082_1083,52.330381,4.879463
GAD03_1082_694,52.330489,4.87946
GAD03_1083_1082,52.331301,4.879456
GAD03_1083_690,52.331232,4.879457
GAD03_1084_568,52.350964,4.849553
GAD03_1084_598,52.351026,4.850418
GAD03_1084_952,52.351705,4.850397
GAD03_1085_939,52.351407,4.832175
GAD03_1085_949,52.351555,4.832299
GAD03_1086_939,52.351643,4.845484
GAD03_1087_1088,52.337421,4.813955
GAD03_1088_1087,52.338913,4.812762
GAD03_1088_1089,52.338709,4.813213
GAD03_1089_1088,52.341862,4.811409
GAD03_1089_857,52.341403,4.811694
GAD03_109_104,52.37827,4.897114
GAD03_109_113-2,52.378111,4.896963
GAD03_1090_851,52.35122,4.815863
GAD03_1091_1092,52.341337,4.792793
GAD03_1092_1091,52.347621,4.797957
GAD03_1093_946,52.356144,4.821104
GAD03_1093_956-2,52.35615,4.821732
GAD03_1094_1095,52.389044,4.794527
GAD03_1094_901,52.38916,4.794427
GAD03_1095_1094,52.390682,4.79449
GAD03_1095_1096,52.390135,4.794518
GAD03_1096_1095,52.395952,4.794441
GAD03_1096_891,52.395646,4.794736
GAD03_1097_883,52.391934,4.778531
GAD03_1098_883,52.395876,4.778303
GAD03_1098_893,52.39552,4.778536
GAD03_1099_1100,52.370469,4.83149
GAD03_1100_1099,52.369604,4.837675
GAD03_1100_927,52.369717,4.836899
GAD03_1101_153-1,52.366254,4.900293
GAD03_1102_443-2,52.368764,4.921763
GAD03_1102_445,52.368713,4.921911
GAD03_1103_103,52.381464,4.89191
GAD03_1103_104,52.381418,4.891645
GAD03_1104_1105,52.302401,5.03661
GAD03_1105_1106,52.302749,5.026337
GAD03_1106_1107,52.303823,5.014429
GAD03_1107_1108,52.310264,5.001692
GAD03_1108_345,52.315445,4.995415
GAD03_1109_1019,52.408173,4.914045
GAD03_1109_1110,52.408368,4.914276
GAD03_1109_218,52.432148,4.869448
GAD03_1110_1109,52.402994,4.912034
GAD03_1110_206,52.403283,4.911699
GAD03_1120_1121,52.382836,4.970574
GAD03_1120_246-2,52.382299,4.970565
GAD03_1121_1120,52.373476,4.962528
GAD03_1121_467,52.37384,4.962397
GAD03_1123_357,52.304151,4.944542
GAD03_1123_362,52.304278,4.944581
GAD03_1124_335,52.305948,4.949813
GAD03_1124_357,52.306149,4.949917
GAD03_1125_333,52.288294,4.94779
GAD03_1126_1127,52.318885,4.962537
GAD03_1126_316,52.318615,4.96205
GAD03_1127_1126,52.318253,4.960979
GAD03_1127_312,52.318522,4.961498
GAD03_1128_306,52.322195,4.952316
GAD03_1128_315,52.322345,4.952535
GAD03_1129_1130,52.326697,4.965529
GAD03_1129_318,52.326853,4.965718
GAD03_1130_1025,52.327366,4.967555
GAD03_1130_1129,52.327438,4.967795
GAD03_1131_1024,52.320735,4.968285
GAD03_113-1_121-3,52.373304,4.89049
GAD03_1131_316,52.320991,4.96882
GAD03_113-2_113-1,52.373623,4.890638
GAD03_1133_324,52.311541,4.941722
GAD03_1133_326-2,52.311591,4.941674
GAD03_1134_313,52.310745,4.932489
GAD03_1135_564,52.349261,4.857726
GAD03_1135_679-2,52.35004,4.857123
GAD03_1136_883,52.392024,4.778529
GAD03_1137_889,52.392026,4.802972
GAD03_1138_953-2,52.37086,4.81639
GAD03_1138_961,52.370672,4.816345
GAD03_1139_1140,52.362741,4.787485
GAD03_1140_1139,52.359742,4.789264
GAD03_1140_970,52.360081,4.788957
GAD03_1141_865,52.347843,4.798081
GAD03_1142_946,52.352502,4.82753
GAD03_1142_949,52.352643,4.827311
GAD03_1143_943,52.357395,4.827602
GAD03_1144_941,52.370771,4.830357
GAD03_1144_964,52.370175,4.83071
GAD03_1145_1146,52.33876,4.812845
GAD03_1146_1145,52.337401,4.813984
GAD03_1146_1147,52.337517,4.813531
GAD03_1147_1146,52.33724,4.821773
GAD03_1147_948,52.337075,4.821356
GAD03_117_104,52.38164,4.896059
GAD03_117_118,52.38151,4.896449
GAD03_118_117,52.385422,4.893252
GAD03_118_119,52.385419,4.893252
GAD03_119_118,52.389492,4.891328
GAD03_121_3_113-1,52.373156,4.889559
GAD03_121-1_121-2,52.37328,4.888437
GAD03_121-1_122-2,52.373306,4.888644
GAD03_121-2_121-1,52.373281,4.889237
GAD03_121-2_121-3,52.373198,4.889014
GAD03_121-3_121-2,52.373244,4.88985
GAD03_122_2-122_1,52.373367,4.887519
GAD03_122-1_122-2,52.373442,4.886836
GAD03_122-1_123-2,52.373453,4.887033
GAD03_122-2_121-1,52.37334,4.887342
GAD03_123-1_123-2,52.373951,4.884566
GAD03_123-1_124-2,52.374055,4.884856
GAD03_123-2_122-1,52.37396,4.885233
GAD03_123-2_123-1,52.373966,4.885392
GAD03_124-1_124-2,52.37389,4.882648
GAD03_124-1_125,52.373995,4.88289
GAD03_124-2_123-1,52.37397,4.883232
GAD03_124-2_124-1,52.374109,4.883515
GAD03_125_124-1,52.373251,4.88009
GAD03_125-126,52.373265,4.880147
GAD03_126_125,52.372047,4.875486
GAD03_126-127,52.372356,4.876144
GAD03_127_126,52.371743,4.874153
GAD03_127_128,52.371827,4.874093
GAD03_127_130,52.371781,4.874109
GAD03_127_158,52.371792,4.874105
GAD03_128_127,52.370853,4.870187
GAD03_128_931,52.371097,4.870781
GAD03_130_127,52.374131,4.874996
GAD03_130_131,52.374146,4.875189
GAD03_130_132,52.374124,4.87513
GAD03_131_130,52.374518,4.872622
GAD03_131_918,52.374797,4.872911
GAD03_132_101,52.37861,4.877761
GAD03_132_130,52.378674,4.877738
GAD03_144_101,52.390726,4.884871
GAD03_144_119,52.390676,4.884964
GAD03_144_975,52.390717,4.884986
GAD03_144_976,52.390755,4.884928
GAD03_153-1_153-2,52.372548,4.893011
GAD03_153-2_152,52.373296,4.893454
GAD03_158_127,52.368344,4.876315
GAD03_158_502,52.368325,4.876339
GAD03_201-1_201-2,52.388997,4.920426
GAD03_201-1_Meeuwenlaan,52.389134,4.919962
GAD03_201-2_201-1,52.389563,4.918601
GAD03_201-2_203-1,52.389599,4.919248
GAD03_203-1_1068,52.391974,4.91249
GAD03_203-1_201-2,52.392076,4.912543
GAD03_203-1_203-2,52.392424,4.912645
GAD03_203-2_203-1,52.39285,4.912635
GAD03_203-2_204,52.392162,4.912831
GAD03_204_203-2,52.394608,4.911966
GAD03_204_207,52.394389,4.912305
GAD03_206_1110,52.399939,4.910338
GAD03_206_207,52.400128,4.910643
GAD03_207_1068,52.398592,4.906879
GAD03_207_204,52.398685,4.906583
GAD03_207_206,52.398653,4.90694
GAD03_207_215,52.398591,4.907283
GAD03_208_1018,52.406795,4.892825
GAD03_208_215,52.406971,4.892124
GAD03_215_207,52.402895,4.896986
GAD03_215_208,52.402835,4.897515
GAD03_216_1017,52.419488,4.877904
GAD03_216_222,52.419134,4.877541
GAD03_218_220,52.426289,4.876209
GAD03_220_221,52.423725,4.882665
GAD03_221_220,52.420822,4.883422
GAD03_221_222,52.421147,4.883505
GAD03_222_216,52.42016,4.880324
GAD03_222_221,52.419843,4.879911
GAD03_223_224,52.409071,4.940762
GAD03_223_247310,52.408691,4.940761
GAD03_224_223,52.406578,4.938546
GAD03_224_225,52.406733,4.938259
GAD03_224_Havikslaan,52.405711,4.936756
GAD03_225_1015,52.404261,4.934838
GAD03_225_224,52.40402,4.935518
GAD03_225_238,52.404937,4.935694
GAD03_227_1069,52.396023,4.929503
GAD03_227_1073,52.396117,4.92989
GAD03_227_1074,52.396106,4.929394
GAD03_227_228,52.396308,4.929741
GAD03_228_1070,52.393075,4.92757
GAD03_228_227,52.393044,4.927534
GAD03_230_1021,52.416167,4.912479
GAD03_230_231,52.415891,4.912425
GAD03_231_230,52.417372,4.913317
GAD03_231_230_V2,52.417397,4.913331
GAD03_232-231,52.420388,4.911789
GAD03_237_1019,52.406395,4.921437
GAD03_237-238,52.406486,4.920853
GAD03_238-237,52.40303,4.93215
GAD03_239_240,52.402052,4.933894
GAD03_240_1069,52.40109,4.935834
GAD03_240_239,52.401064,4.936147
GAD03_240_242,52.401124,4.935766
GAD03_242_240,52.399111,4.94574
GAD03_242_243,52.399194,4.945231
GAD03_243_242,52.397314,4.951759
GAD03_243_244,52.397403,4.951454
GAD03_244_1023,52.396041,4.954473
GAD03_244_243,52.395759,4.954669
GAD03_246-1_1022,52.389815,4.96586
GAD03_246-2_1120,52.388422,4.966774
GAD03_247310_223,52.42077,4.949823
GAD03_247312_247310,52.421908,4.953624
GAD03_303_1038,52.332972,4.923113
GAD03_303_1039,52.332662,4.923622
GAD03_304_1036,52.328145,4.92755
GAD03_305_307,52.324573,4.929809
GAD03_306_1128,52.323532,4.956043
GAD03_306_317,52.323318,4.955662
GAD03_307_309,52.317243,4.932117
GAD03_308-1_308-2,52.311334,4.937488
GAD03_308-1_324,52.311404,4.937085
GAD03_308-2_308-1,52.312053,4.936495
GAD03_309_308-2,52.313723,4.934998
GAD03_310_311,52.317378,4.9502
GAD03_310_313,52.317131,4.950316
GAD03_310_315,52.317017,4.950652
GAD03_311_310,52.315421,4.952452
GAD03_311_312,52.315372,4.952034
GAD03_312_1127,52.316199,4.954968
GAD03_312_311,52.316448,4.955382
GAD03_312_320,52.316242,4.95503
GAD03_313_1134,52.315626,4.945606
GAD03_313_310,52.315392,4.945302
GAD03_315_1128,52.320452,4.947593
GAD03_315_310,52.320697,4.947758
GAD03_316_1126,52.319882,4.965296
GAD03_316_1131,52.319639,4.965109
GAD03_317_306,52.324504,4.958887
GAD03_317_318,52.324284,4.958484
GAD03_318_1129,52.325393,4.961669
GAD03_318_317,52.32553,4.961815
GAD03_319_320,52.311729,4.950455
GAD03_319_328,52.311951,4.95066
GAD03_320_312,52.313983,4.95693
GAD03_320_319,52.31433,4.956766
GAD03_321-1_321-2,52.308974,4.958581
GAD03_321-1_335,52.309177,4.95882
GAD03_321-2_321-1,52.309953,4.961072
GAD03_321-2_323-1,52.309773,4.960817
GAD03_323-1_321-2,52.312011,4.967048
GAD03_324_1133,52.310467,4.938318
GAD03_324_308-1,52.310331,4.9384
GAD03_324_325,52.310513,4.937843
GAD03_325_1034,52.308427,4.93971
GAD03_325_324,52.308039,4.940485
GAD03_326-1-1081,52.309064,4.942762
GAD03_326-2_1133,52.309664,4.943822
GAD03_326-2_328,52.309602,4.943519
GAD03_328_319,52.31067,4.947414
GAD03_328_326-2,52.31089,4.947522
GAD03_329_330,52.30224,4.944691
GAD03_329_362,52.301987,4.94508
GAD03_330_329,52.300582,4.946411
GAD03_330_331,52.300658,4.946073
GAD03_331_330,52.298557,4.948266
GAD03_331_332,52.298648,4.947916
GAD03_332_331,52.29499,4.951107
GAD03_332_333,52.295243,4.951047
GAD03_332_349,52.295065,4.951338
GAD03_333_1125,52.293931,4.948187
GAD03_333_332,52.293528,4.947665
GAD03_334_1001,52.30035,4.966557
GAD03_334_349,52.300408,4.966731
GAD03_335_1124,52.30773,4.95454
GAD03_335_321-1,52.307486,4.954281
GAD03_337_1032,52.316656,4.980611
GAD03_337_339,52.316384,4.980579
GAD03_339_337,52.318829,4.984232
GAD03_339_340,52.318727,4.984424
GAD03_340_1024,52.323239,4.980756
GAD03_340_339,52.323357,4.98038
GAD03_342-1_342-2,52.307529,4.971542
GAD03_342-1_346,52.307459,4.971404
GAD03_342-2_1018,52.308628,4.970538
GAD03_342-2_342-1,52.308537,4.970433
GAD03_344_345,52.31147,4.984972
GAD03_345_1108,52.312643,4.98912
GAD03_345_344,52.312866,4.989484
GAD03_346_1002,52.306625,4.973393
GAD03_346_342-1,52.30669,4.973428
GAD03_349_332,52.297791,4.958911
GAD03_349_334,52.29774,4.959097
GAD03_357_1078,52.305046,4.946439
GAD03_357_1079,52.304821,4.9469
GAD03_357_1123,52.305102,4.946948
GAD03_357_1124,52.304828,4.946431
GAD03_362_1034,52.303736,4.943744
GAD03_362_1123,52.303803,4.94356
GAD03_362_329,52.303956,4.943281
GAD03_401-1_401-2,52.371491,4.911638
GAD03_401-1_403,52.371671,4.910404
GAD03_401-1_440,52.371705,4.910677
GAD03_401-2_401-1,52.371772,4.910469
GAD03_401-2_402,52.371562,4.911463
GAD03_401-2_403,52.371522,4.911549
GAD03_401-2_806,52.371755,4.910866
GAD03_402_1012,52.373124,4.912357
GAD03_402_401-1,52.373477,4.912122
GAD03_403_404-3,52.370171,4.908323
GAD03_403_440,52.370047,4.908229
GAD03_404-1_404-3,52.367534,4.904226
GAD03_404-1_406,52.367609,4.903928
GAD03_404-3_403,52.368409,4.904164
GAD03_404-3_404-1,52.368568,4.904238
GAD03_406_404-1,52.36416,4.906321
GAD03_406_409,52.36436,4.905986
GAD03_409_406,52.360994,4.908162
GAD03_409_410-2,52.361342,4.907786
GAD03_410-1_410-2,52.358643,4.909607
GAD03_410-1_411,52.358608,4.909446
GAD03_410-2_409,52.35989,4.908859
GAD03_410-2_410-1,52.36003,4.908551
GAD03_411_410-1,52.357511,4.910301
GAD03_411_412,52.35746,4.910112
GAD03_412_411,52.356403,4.910981
GAD03_412_413,52.356342,4.910782
GAD03_413_412,52.353605,4.91266
GAD03_413_414,52.353556,4.91246
GAD03_414_413,52.350697,4.91549
GAD03_414_417,52.350624,4.915398
GAD03_415_1045,52.347776,4.918591
GAD03_415-1_415-2,52.348482,4.920376
GAD03_415-2_415-3,52.348401,4.919788
GAD03_415-3_417,52.348579,4.918704
GAD03_415-4_415-5,52.348579,4.918291
GAD03_415-5_481,52.348215,4.919345
GAD03_417_414,52.349814,4.916935
GAD03_417_415-4,52.349724,4.916842
GAD03_420_432,52.363011,4.920252
GAD03_420_446,52.362912,4.9204
GAD03_422_1033,52.359853,4.925505
GAD03_422_424,52.36021,4.925062
GAD03_422_452,52.360024,4.925684
GAD03_424_422,52.353632,4.930849
GAD03_424_425,52.353836,4.930365
GAD03_425_424,52.350799,4.935429
GAD03_425_436,52.35099,4.935341
GAD03_425_439,52.350955,4.934858
GAD03_425_455,52.35075,4.934947
GAD03_426_437,52.347828,4.939914
GAD03_426_439,52.347712,4.940416
GAD03_432_1016,52.361552,4.915245
GAD03_432_420,52.361489,4.915237
GAD03_436_1045,52.347683,4.929514
GAD03_436_425,52.347457,4.929057
GAD03_437_426,52.343302,4.947468
GAD03_437_478,52.342322,4.948679
GAD03_439_425,52.349028,4.938238
GAD03_439_426,52.34912,4.937833
GAD03_440_401-2,52.371212,4.912443
GAD03_440_442,52.371127,4.912377
GAD03_442_440,52.371208,4.915042
GAD03_442_445,52.371135,4.9151
GAD03_442_463,52.371143,4.915123
GAD03_443-1_443-2,52.366937,4.925248
GAD03_443-1_446,52.367106,4.925081
GAD03_443-2_1102,52.367323,4.925533
GAD03_443-2_443-1,52.367516,4.925296
GAD03_444_447,52.368467,4.933816
GAD03_444_448,52.368467,4.933701
GAD03_445_1102,52.369654,4.91918
GAD03_445_442,52.3696,4.919358
GAD03_446_420,52.365912,4.926767
GAD03_446_443-1,52.365805,4.926867
GAD03_446_454,52.3658,4.926887
GAD03_447_444,52.371109,4.934081
GAD03_447_466,52.371116,4.934241
GAD03_448_444,52.366211,4.933858
GAD03_448_449,52.366213,4.933855
GAD03_448_454,52.366264,4.933766
GAD03_449_1077,52.366133,4.939292
GAD03_449_448,52.366137,4.939693
GAD03_449_452,52.366315,4.939491
GAD03_450_1022,52.365113,4.948295
GAD03_450_1077,52.365237,4.948505
GAD03_450_452,52.365392,4.948754
GAD03_452_422,52.361771,4.94014
GAD03_452_449,52.361398,4.939835
GAD03_452_450,52.361539,4.939394
GAD03_452_456,52.361555,4.939778
GAD03_453_467,52.369704,4.968327
GAD03_453_469,52.36957,4.968177
GAD03_454_446,52.366108,4.932239
GAD03_454_448,52.366019,4.932164
GAD03_455_425,52.353261,4.939238
GAD03_455_456,52.353202,4.939137
GAD03_456_452,52.357865,4.941047
GAD03_456_455,52.358294,4.940991
GAD03_459_105,52.378216,4.904848
GAD03_459_460,52.378208,4.904975
GAD03_459-1_459-2,52.378062,4.906608
GAD03_460_461,52.377323,4.913027
GAD03_460-459-1,52.377376,4.913124
GAD03_461_460,52.377047,4.916321
GAD03_461_462,52.376966,4.916281
GAD03_462_461,52.376769,4.918456
GAD03_462_463,52.376701,4.918407
GAD03_463_442,52.376151,4.92157
GAD03_463_462,52.376315,4.921722
GAD03_463_464,52.376237,4.921676
GAD03_464_463,52.375088,4.929026
GAD03_464_466,52.375008,4.928992
GAD03_466_447,52.372365,4.933614
GAD03_466_464,52.372343,4.933821
GAD03_466_467,52.372322,4.93374
GAD03_467_1022,52.372357,4.962334
GAD03_467_1121,52.371795,4.962472
GAD03_467_453,52.371979,4.962362
GAD03_467_466,52.372172,4.962395
GAD03_468_471,52.360815,4.984939
GAD03_468_472,52.360774,4.984864
GAD03_469_453,52.368324,4.970914
GAD03_469_470,52.368216,4.97071
GAD03_470_469,52.366426,4.97447
GAD03_470_471,52.366305,4.974312
GAD03_471_468,52.363025,4.980629
GAD03_471_470,52.363069,4.980684
GAD03_472_468,52.359505,4.987431
GAD03_472_473,52.359404,4.987266
GAD03_473_472,52.357659,4.990891
GAD03_473_474,52.357508,4.990694
GAD03_474_473,52.355296,4.995333
GAD03_475_474,52.352928,4.999755
GAD03_478_437,52.341134,4.951127
GAD03_478_479,52.341185,4.950624
GAD03_479_478,52.340237,4.952802
GAD03_480_1006,52.336235,4.94336
GAD03_480_481,52.336315,4.943616
GAD03_481_415-1,52.338332,4.939809
GAD03_481_480,52.338239,4.939567
GAD03_487_475,52.335181,5.004693
GAD03_502_158,52.366089,4.877864
GAD03_502_577,52.366095,4.877854
GAD03_522142_1134,52.30946,4.929627
GAD03_526_527,52.357775,4.899358
GAD03_527_526,52.358306,4.901736
GAD03_527_528,52.358311,4.901764
GAD03_528_1017,52.358713,4.903808
GAD03_528_527,52.358712,4.903795
GAD03_528_529,52.358703,4.903798
GAD03_529_528,52.355847,4.905156
GAD03_529_662,52.356156,4.905053
GAD03_535_551,52.352123,4.886072
GAD03_535_670,52.35233,4.886136
GAD03_541_526,52.358082,4.890842
GAD03_541_590,52.358084,4.890829
GAD03_551_535,52.354763,4.886379
GAD03_551_591,52.354431,4.886393
GAD03_564_1135,52.351682,4.856429
GAD03_564_565-1,52.351295,4.856814
GAD03_564_598,52.351496,4.856542
GAD03_565-1_564,52.353701,4.85581
GAD03_565-1_565-2,52.353595,4.855848
GAD03_565-2_565-1,52.354913,4.855329
GAD03_565-2_571,52.354818,4.855552
GAD03_568_1084,52.354997,4.85032
GAD03_568_569,52.354817,4.850332
GAD03_568_952,52.354916,4.850326
GAD03_569_568,52.357972,4.850225
GAD03_569_580,52.35796,4.850235
GAD03_569_936,52.358162,4.85056
GAD03_571_565-2,52.357639,4.855107
GAD03_571_572,52.357718,4.855058
GAD03_571_580,52.357832,4.855619
GAD03_572_571,52.359047,4.860155
GAD03_572_573,52.358905,4.860163
GAD03_573_572,52.360355,4.865594
GAD03_573_575,52.360226,4.865558
GAD03_575_573,52.362393,4.873658
GAD03_575_576,52.362284,4.873651
GAD03_576_575,52.362843,4.875387
GAD03_576_577,52.362668,4.875224
GAD03_577_502,52.363784,4.878913
GAD03_577_576,52.363765,4.878968
GAD03_577_578,52.363793,4.878772
GAD03_578_577,52.362912,4.880251
GAD03_578_583,52.362846,4.880066
GAD03_580_569,52.358223,4.85386
GAD03_580_571,52.358082,4.853304
GAD03_580_597,52.358449,4.853629
GAD03_583_578,52.361715,4.882269
GAD03_583_589,52.361664,4.882279
GAD03_586_590,52.358715,4.886376
GAD03_586_591,52.358876,4.886396
GAD03_589_583,52.360596,4.886047
GAD03_589_590,52.360544,4.885953
GAD03_590_541,52.360123,4.886777
GAD03_590_586,52.360122,4.886783
GAD03_590_589,52.36014,4.88688
GAD03_591_551,52.357684,4.886259
GAD03_591_586,52.357564,4.886252
GAD03_597_580,52.361935,4.853165
GAD03_597_935,52.361731,4.853372
GAD03_598_1084,52.350853,4.854237
GAD03_598_564,52.350831,4.854064
GAD03_635_639,52.340993,4.892084
GAD03_635_640,52.340481,4.892513
GAD03_635_653,52.340722,4.892551
GAD03_639_635,52.338884,4.892257
GAD03_639_642,52.339024,4.891903
GAD03_640_635,52.342201,4.89221
GAD03_640_654,52.341762,4.892604
GAD03_642_639,52.337398,4.891926
GAD03_642_643-2,52.337811,4.891765
GAD03_643-1_643-2,52.333734,4.89018
GAD03_643-1_692,52.334125,4.889807
GAD03_643-2_642,52.334471,4.89021
GAD03_643-2_643-1,52.334907,4.889824
GAD03_643-2_686,52.334734,4.889746
GAD03_649_651,52.343378,4.913029
GAD03_649_662,52.343095,4.91315
GAD03_651_1046,52.340422,4.907928
GAD03_651_649,52.340284,4.907628
GAD03_651_652,52.340358,4.907404
GAD03_652_651,52.340357,4.901522
GAD03_652_653,52.340438,4.901994
GAD03_653_635,52.340625,4.897703
GAD03_653_652,52.340547,4.897161
GAD03_654_1048,52.34402,4.890835
GAD03_654_640,52.344197,4.89025
GAD03_655_1048,52.347184,4.880002
GAD03_655_656,52.347215,4.880067
GAD03_655_671,52.347169,4.879966
GAD03_656_655,52.346807,4.876566
GAD03_656_659-2,52.34694,4.877173
GAD03_656_676,52.346801,4.876775
GAD03_659-1_659-2,52.346344,4.866886
GAD03_659-1_660,52.346539,4.867229
GAD03_659-2_656,52.346483,4.868045
GAD03_659-2_659-1,52.346635,4.86836
GAD03_660_1061,52.346051,4.864161
GAD03_660_659-1,52.345947,4.863897
GAD03_661_415,52.347453,4.913512
GAD03_661_662,52.347566,4.913859
GAD03_662_529,52.347044,4.911883
GAD03_662_649,52.347326,4.911573
GAD03_662_661,52.347184,4.911764
GAD03_662_664,52.347237,4.911592
GAD03_670_535,52.349855,4.885548
GAD03_670_671,52.349971,4.885855
GAD03_671_655,52.348879,4.883414
GAD03_671_670,52.348605,4.882852
GAD03_675-1_675-2,52.343068,4.85736
GAD03_675-1_680,52.343246,4.857023
GAD03_675-2_675-1,52.344006,4.85675
GAD03_675-2_679-1,52.343957,4.857056
GAD03_676_656,52.340547,4.877044
GAD03_676_691,52.341419,4.876822
GAD03_678_681,52.321531,4.857505
GAD03_679-1_675-2,52.34512,4.856815
GAD03_679-1_679-2,52.344766,4.856793
GAD03_679-2_1061,52.345017,4.857339
GAD03_679-2_1135,52.345283,4.857922
GAD03_679-2_679-1,52.345346,4.858275
GAD03_680_675-1,52.340888,4.857808
GAD03_680_699,52.341303,4.857581
GAD03_681_1057,52.327573,4.857487
GAD03_681_697,52.327752,4.857485
GAD03_682_687,52.331906,4.869046
GAD03_682_697,52.332264,4.868693
GAD03_683_688,52.335256,4.859966
GAD03_683_695,52.335086,4.859852
GAD03_686_643-2,52.334996,4.878193
GAD03_686_687,52.335164,4.879092
GAD03_686_690,52.334962,4.878642
GAD03_686_691,52.335111,4.878706
GAD03_687_682,52.335182,4.868661
GAD03_687_686,52.334992,4.868418
GAD03_687_693,52.33507,4.869225
GAD03_687_698,52.334865,4.869004
GAD03_688_1060,52.335459,4.857416
GAD03_688_683,52.335092,4.857676
GAD03_688_689,52.334934,4.857627
GAD03_689_699,52.337015,4.857745
GAD03_690_1083,52.332246,4.879456
GAD03_690_686,52.331942,4.879454
GAD03_691_676,52.336597,4.877519
GAD03_691_686,52.336896,4.87703
GAD03_692_1047,52.332249,4.889783
GAD03_692_643-1,52.331955,4.890159
GAD03_693_687,52.334992,4.865618
GAD03_693_695,52.335057,4.865915
GAD03_694_1047,52.327877,4.879127
GAD03_694_1082,52.328031,4.879471
GAD03_694_697,52.328051,4.879703
GAD03_695_683,52.33526,4.862044
GAD03_695_693,52.335053,4.861439
GAD03_696_659-1,52.340464,4.868597
GAD03_696_698,52.340721,4.868367
GAD03_697_681,52.327847,4.861854
GAD03_697_682,52.327862,4.869059
GAD03_697_694,52.327784,4.868865
GAD03_698_687,52.336746,4.868634
GAD03_698_696,52.336531,4.868989
GAD03_699_680,52.339048,4.857709
GAD03_806_106,52.37487,4.904167
GAD03_806_401-2,52.374987,4.903723
GAD03_851_1090,52.346152,4.816174
GAD03_851_857,52.346603,4.815953
GAD03_857_1089,52.344938,4.811322
GAD03_857_851,52.344947,4.811074
GAD03_857_858,52.345038,4.811814
GAD03_858_857,52.345526,4.806159
GAD03_858_859,52.345272,4.806514
GAD03_859_1062,52.349488,4.804536
GAD03_859_1063,52.349276,4.803829
GAD03_859_858,52.349326,4.804144
GAD03_859_865,52.349471,4.804452
GAD03_859_949,52.349334,4.804137
GAD03_861_863,52.354427,4.771201
GAD03_863_861,52.348932,4.78688
GAD03_863_864,52.348881,4.786981
GAD03_864_863,52.350033,4.789492
GAD03_864_865,52.349863,4.789499
GAD03_865_1062,52.350716,4.793716
GAD03_865_1141,52.351038,4.793826
GAD03_865_859,52.350754,4.793911
GAD03_865_864,52.350654,4.794196
GAD03_865_866,52.350788,4.794086
GAD03_865_970,52.350637,4.794206
GAD03_866_865,52.352186,4.800365
GAD03_866_956-1,52.351943,4.799831
GAD03_883_1097,52.394708,4.778256
GAD03_883_1098,52.394484,4.778528
GAD03_883_1136,52.394735,4.778258
GAD03_883_893,52.394502,4.778528
GAD03_889_1137,52.394165,4.802632
GAD03_889_891,52.394198,4.802989
GAD03_889_965,52.394049,4.802829
GAD03_891_1096,52.397461,4.794349
GAD03_891_889,52.397613,4.794434
GAD03_891_893,52.397849,4.794416
GAD03_893_1098,52.397601,4.778311
GAD03_893_883,52.397574,4.778308
GAD03_893_891,52.397609,4.778414
GAD03_893_894,52.397857,4.778441
GAD03_894_893,52.39871,4.771223
GAD03_894_895,52.398929,4.771345
GAD03_895_894,52.402894,4.75942
GAD03_895_896,52.402937,4.759787
GAD03_896_895,52.406194,4.757699
GAD03_901_1094,52.384335,4.803142
GAD03_902_907,52.38437,4.818635
GAD03_902_972,52.38437,4.818741
GAD03_902_986,52.384578,4.818975
GAD03_903_967,52.384916,4.847573
GAD03_903_990,52.385007,4.847634
GAD03_904_912,52.38505,4.855418
GAD03_904_967,52.385078,4.855476
GAD03_904_978,52.385077,4.855455
GAD03_905_906,52.385355,4.869589
GAD03_905_973,52.385357,4.86961
GAD03_906_101,52.385459,4.874952
GAD03_906_905,52.385449,4.874926
GAD03_907_902,52.381458,4.821666
GAD03_907_909,52.381328,4.821376
GAD03_908_923,52.373047,4.83542
GAD03_908_963,52.37321,4.835573
GAD03_909_907,52.379803,4.832332
GAD03_909_910,52.379663,4.832159
GAD03_910_909,52.378023,4.843781
GAD03_910_924,52.377719,4.84439
GAD03_910-1_910-2,52.377863,4.843522
GAD03_910-2_910-1,52.377883,4.844753
GAD03_911_920,52.37339,4.852489
GAD03_911_921,52.373439,4.852432
GAD03_912_904,52.380589,4.85454
GAD03_912_924,52.380754,4.854589
GAD03_913_1065,52.400575,4.850734
GAD03_913_1066,52.4006,4.850084
GAD03_914_915-2,52.391997,4.847234
GAD03_914_980,52.391722,4.84725
GAD03_915-1_915-2,52.391628,4.843461
GAD03_915-1_981,52.391973,4.843345
GAD03_915-2_914,52.391618,4.844961
GAD03_915-2_915-1,52.391987,4.844916
GAD03_916_984,52.39166,4.835675
GAD03_916-1_916-2,52.391599,4.835652
GAD03_916-2_981,52.391596,4.836329
GAD03_916-3_916-4,52.391997,4.836277
GAD03_916-4_987,52.391976,4.835632
GAD03_918_131,52.375744,4.867401
GAD03_918_919,52.375827,4.867491
GAD03_919_918,52.375181,4.862665
GAD03_919_920,52.375187,4.862721
GAD03_920_911,52.374669,4.85868
GAD03_920_919,52.374655,4.858544
GAD03_921_911,52.37269,4.848843
GAD03_921_924,52.37261,4.849053
GAD03_921_927,52.372834,4.848709
GAD03_921_929,52.372784,4.84893
GAD03_922_923,52.372443,4.84162
GAD03_922_929,52.372003,4.842732
GAD03_922-1_922-2,52.372119,4.84123
GAD03_922-3_922-4,52.372302,4.843044
GAD03_923_908,52.372662,4.838888
GAD03_923_922,52.372586,4.838279
GAD03_924_910,52.378091,4.846291
GAD03_924_912,52.377875,4.846116
GAD03_924_921,52.377807,4.846056
GAD03_925_927,52.367138,4.8526
GAD03_925_935,52.367223,4.852368
GAD03_927_1100,52.370142,4.850444
GAD03_927_921,52.36982,4.850482
GAD03_927_925,52.370163,4.85009
GAD03_927_928,52.370016,4.85012
GAD03_928_927,52.37071,4.853784
GAD03_928_930,52.370547,4.853641
GAD03_929_921,52.372343,4.84675
GAD03_929_922,52.37261,4.847931
GAD03_930_928,52.371485,4.859038
GAD03_930_931,52.371377,4.858713
GAD03_931_128,52.370147,4.867018
GAD03_931_930,52.370313,4.867295
GAD03_935_597,52.364402,4.853085
GAD03_935_925,52.364022,4.853283
GAD03_936_569,52.357754,4.843107
GAD03_939_1085,52.351615,4.841158
GAD03_939_1086,52.351485,4.840526
GAD03_941_1144,52.363709,4.827118
GAD03_941_943,52.364216,4.826971
GAD03_943_941,52.359096,4.827286
GAD03_943_946,52.359227,4.827141
GAD03_946_1093,52.356219,4.82717
GAD03_946_1142,52.356365,4.827188
GAD03_946_1143,52.355995,4.827444
GAD03_948_1147,52.34161,4.827603
GAD03_948_951,52.341143,4.827886
GAD03_949_1065,52.351171,4.827561
GAD03_949_1085,52.351373,4.827428
GAD03_949_1142,52.351444,4.827548
GAD03_949_859,52.351144,4.82756
GAD03_949_950,52.351367,4.827325
GAD03_950_949,52.346598,4.827653
GAD03_950_951,52.346985,4.827416
GAD03_951_948,52.345563,4.827454
GAD03_951_950,52.345733,4.827688
GAD03_951_952,52.345926,4.827438
GAD03_952_1084,52.345568,4.841382
GAD03_952_568,52.345566,4.841441
GAD03_952_951,52.34595,4.840515
GAD03_953-2_1138,52.366165,4.80401
GAD03_956-1_866,52.354122,4.809633
GAD03_956-1_956-2,52.353901,4.809245
GAD03_956-2_1093,52.354091,4.810201
GAD03_956-2_956-1,52.354301,4.810818
GAD03_961_1138,52.372664,4.817682
GAD03_961_962,52.372487,4.817861
GAD03_962_961,52.375379,4.818684
GAD03_962_964,52.375475,4.819533
GAD03_963_908,52.374333,4.827145
GAD03_963_964,52.373631,4.832961
GAD03_964_1144,52.374301,4.827229
GAD03_964_962,52.374504,4.827385
GAD03_964_963,52.374329,4.827173
GAD03_965_889,52.395401,4.808504
GAD03_965_987,52.39517,4.808258
GAD03_967_903,52.385029,4.851705
GAD03_967_904,52.385038,4.851705
GAD03_970_1140,52.356218,4.791152
GAD03_970_865,52.356499,4.790875
GAD03_972_902,52.384799,4.834967
GAD03_972_982,52.384668,4.834619
GAD03_972_983,52.384807,4.834747
GAD03_973_905,52.38527,4.865275
GAD03_975_1001,52.39313,4.872877
GAD03_975_1067,52.393155,4.872954
GAD03_975_144,52.393044,4.872584
GAD03_975_974,52.39313,4.872789
GAD03_975_976,52.392853,4.872758
GAD03_976_144,52.391649,4.878227
GAD03_976_975,52.391646,4.878232
GAD03_978_904,52.385225,4.863138
GAD03_978_973,52.385225,4.863114
GAD03_980_1001,52.39188,4.855372
GAD03_980_914,52.392141,4.855357
GAD03_981_915-1,52.391637,4.840893
GAD03_981_916-3,52.391869,4.840881
GAD03_982_972,52.384902,4.840442
GAD03_982_990,52.384779,4.840218
GAD03_983_972,52.386249,4.835362
GAD03_983_984,52.385898,4.835338
GAD03_984_916,52.387387,4.836146
GAD03_984_983,52.387817,4.836008
GAD03_985_986,52.389273,4.818643
GAD03_985_987,52.389229,4.818847
GAD03_986_902,52.387873,4.818663
GAD03_986_985,52.387863,4.818854
GAD03_987_916-1,52.391322,4.818715
GAD03_987_965,52.391708,4.818707
GAD03_987_985,52.391309,4.818466
GAD03_990_903,52.384775,4.845503
GAD03_centrumring_MRVisserPlein_PHKade,52.367982,4.903234
GAD03_De_Ruijterkade_oost1,52.378149,4.906419
GAD03_De_Ruijterkade_oost2,52.377329,4.909983
GAD03_GAD03_1067_974,52.393906,4.86381
GAD03_Meeuwenlaan_201-1,52.387658,4.923764
GAD03_MOA_Route004,52.390788,4.884958
GAD03_MOA_Route028,52.372497,4.934487
GAD03_MOA_Route110,52.366008,4.804001
GAD03_MOA_Route117_M,52.309948,4.930807
GAD03_MOA_Route12B,52.374632,4.8582
GAD03_MOA_Route14B,52.358298,4.852375
GAD03_MOA_Route27B,52.372309,4.961645
GAD03_MOA_Route35A,52.386024,4.913409
GAD03_MOA_Route55A,52.337886,4.892102
GAD03_N202_896,52.429997,4.735811
GAD03_Rokin_153,52.367526,4.893527
GAD03_S100buiten,52.390618,4.884896
GAD03_XXX_913,52.417227,4.826074
LRA01_PNH_A10Li4.2c_N247Re30.0,52.408916,4.941
LRA01_PNH_N235Li0.5_N247RL31.3,52.426277,4.95108
LRA01_PNH_N235Li1.0_N235Li0.5,52.430294,4.951129
LRA01_PNH_N235Li1.5_N235Li1.0,52.434938,4.951317
LRA01_PNH_N235Li1.9_N235Li1.5,52.438527,4.951066
LRA01_PNH_N235Li2.5_N235Li1.9,52.443761,4.950083
LRA01_PNH_N235Li3.0_N235Li2.5,52.448215,4.949232
LRA01_PNH_N235Li3.5_N235Li3.0,52.452636,4.948665
LRA01_PNH_N235Li4.0_N235Li3.5,52.456931,4.950706
LRA01_PNH_N235Li4.2_N235Li4.0,52.459212,4.951094
LRA01_PNH_N235Li4.7_N235Li4.2,52.463606,4.949508
LRA01_PNH_N235Li4.8_N235Li4.7,52.463987,4.94938
LRA01_PNH_N235Li5.0_N235Li4.8,52.465813,4.948489
LRA01_PNH_N235Li5.5_N235Li5.0,52.470083,4.94732
LRA01_PNH_N235Li6.0_N235Li5.5,52.474556,4.947426
LRA01_PNH_N235Li6.5_N235Li6.0,52.479003,4.947625
LRA01_PNH_N235Li7.0_N235Li6.5,52.483505,4.948653
LRA01_PNH_N235Li7.2_N235Li7.0,52.485162,4.949101
LRA01_PNH_N247Li30.0_A10Li4.6d,52.413018,4.944107
LRA01_PNH_N247Li30.5_N247Li30.0,52.41694,4.946244
LRA01_PNH_N247Li31.0_N247Li30.5,52.420714,4.94969
LRA01_PNH_N247Li31.3_N247Li31.0,52.421824,4.953347
LRA01_PNH_N247Re30.0_N247Re30.5,52.412871,4.944299
LRA01_PNH_N247Re30.5_N247Re31.0,52.41715,4.946591
LRA01_RWS_A10Li1.0_A10Li33.0,52.423652,4.900482
LRA01_RWS_A10Li1.5_A10Li1.0,52.421172,4.906739
LRA01_RWS_A10Li1.8d_A10Li1.5,52.419915,4.909885
LRA01_RWS_A10Li1.9d_A10Li1.8d,52.42042,4.911674
LRA01_RWS_A10Li10.0_A10Li9.5,52.363304,4.97015
LRA01_RWS_A10Li10.0_A10Li9.6c,52.363246,4.970119
LRA01_RWS_A10Li10.5_A10Li10.0,52.359678,4.968103
LRA01_RWS_A10Li11.0_A10Li10.5,52.355488,4.965721
LRA01_RWS_A10Li2.0_A10Li1.5,52.418604,4.912562
LRA01_RWS_A10Li2.0_A10Li1.8c,52.418669,4.912386
LRA01_RWS_A10Li2.5_A10Li2.0,52.416159,4.919094
LRA01_RWS_A10Li3.0_A10Li2.5,52.41356,4.92478
LRA01_RWS_A10Li3.5_A10Li3.0,52.410726,4.930388
LRA01_RWS_A10Li32.0_A10Li31.5,52.424884,4.88488
LRA01_RWS_A10Li32.0s_A10Li31.5s,52.425048,4.885076
LRA01_RWS_A10Li32.3s_A10Li31.9s,52.425277,4.889019
LRA01_RWS_A10Li32.3s_A10Li32.0s,52.425049,4.885091
LRA01_RWS_A10Li32.5_A10Li32.0,52.425036,4.892265
LRA01_RWS_A10Li32.7_A10Li32.3s,52.425281,4.889195
LRA01_RWS_A10Li32.7_A10Li32.5,52.4249,4.893914
LRA01_RWS_A10Li33.0_A10Li32.7,52.42392,4.899519
LRA01_RWS_A10Li4.0_A10Li3.5,52.408307,4.936129
LRA01_RWS_A10Li4.3d_A10Li4.0,52.40704,4.94166
LRA01_RWS_A10Li4.5_A10Li4.0,52.406299,4.943284
LRA01_RWS_A10Li4.6d_A10Li4.3d,52.408748,4.940956
LRA01_RWS_A10Li4.8_A10Li4.2c,52.405274,4.946328
LRA01_RWS_A10Li5.0_A10Li4.8,52.404025,4.949372
LRA01_RWS_A10Li5.5_A10Li5.0,52.401048,4.955129
LRA01_RWS_A10Li6.0_A10Li5.5,52.397634,4.959985
LRA01_RWS_A10Li6.5_A10Li6.0,52.393908,4.963704
LRA01_RWS_A10Li6.8d_A10Li6.5,52.391513,4.966103
LRA01_RWS_A10Li7.0_A10Li6.5,52.389895,4.967137
LRA01_RWS_A10Li7.0d_A10Li6.8d,52.390322,4.967837
LRA01_RWS_A10Li7.4_A10Li7.0,52.386727,4.969756
LRA01_RWS_A10Li7.4_A10Li7.0c,52.38629,4.970099
LRA01_RWS_A10Li7.5_A10Li7.4,52.385941,4.970372
LRA01_RWS_A10Li8.0_A10Li7.5,52.381579,4.972923
LRA01_RWS_A10Li8.5_A10Li8.0,52.377176,4.974103
LRA01_RWS_A10Li9.0_A10Li8.5,52.372778,4.974107
LRA01_RWS_A10Li9.5_A10Li9.0,52.368217,4.972705
LRA01_RWS_A10Li9.8d_A10Li9.5,52.365812,4.972369
LRA01_RWS_A10Li9.9d_A10Li9.8d,52.366302,4.9742
LRA01_RWS_A10R_Amstel_De_Nieuwe_Meer,52.329674,4.920596
LRA01_RWS_A10R_Coenplein_Watergraafsmeer,52.424717,4.884483
LRA01_RWS_A10Re1.0_A10Re1.5,52.423495,4.900388
LRA01_RWS_A10Re1.5_A10Re1.7,52.421022,4.906625
LRA01_RWS_A10Re1.7_A10Re2.0,52.420092,4.908612
LRA01_RWS_A10Re1.7_A10Re2.1a,52.420134,4.90852
LRA01_RWS_A10Re1.7b_A10Re1.9b,52.417285,4.913269
LRA01_RWS_A10Re1.9b_A10Re2.0,52.418608,4.911402
LRA01_RWS_A10Re10.0_A10Re10.5,52.364315,4.970399
LRA01_RWS_A10Re10.5_A10Re11.0,52.359771,4.967854
LRA01_RWS_A10Re2.0_A10Re2.5,52.41823,4.913045
LRA01_RWS_A10Re2.5_A10Re3.0,52.416033,4.918909
LRA01_RWS_A10Re3.0_A10Re3.5,52.413404,4.924677
LRA01_RWS_A10Re3.5_A10Re4.0,52.410535,4.930386
LRA01_RWS_A10Re3.5_A10Re4.1a,52.410593,4.930274
LRA01_RWS_A10Re30.9_A10Re31.0,52.420346,4.871214
LRA01_RWS_A10Re30.9_A8Re1.0,52.420402,4.871309
LRA01_RWS_A10Re31.0_A10Re31.3,52.420861,4.872412
LRA01_RWS_A10Re31.3_A10Re31.5,52.42225,4.875905
LRA01_RWS_A10Re31.3_A10Re31.7a,52.422255,4.875916
LRA01_RWS_A10Re31.5_A10Re32.0,52.423474,4.878347
LRA01_RWS_A10Re31.9b_A10Re32.1b,52.42374,4.883227
LRA01_RWS_A10Re32.0_A10Re32.5,52.424804,4.885295
LRA01_RWS_A10Re32.1b_A10Re32.5,52.424707,4.886945
LRA01_RWS_A10Re32.5_A10Re33.0,52.424826,4.893271
LRA01_RWS_A10Re33.0_A10Re1.0,52.42375,4.899464
LRA01_RWS_A10Re4.0_A10Re4.5,52.408037,4.936295
LRA01_RWS_A10Re4.2b_A10Re4.5b,52.406595,4.938654
LRA01_RWS_A10Re4.5_A10Re5.0,52.406129,4.943267
LRA01_RWS_A10Re4.5b_A10Re5.0,52.40597,4.94266
LRA01_RWS_A10Re5.0_A10Re5.5,52.40383,4.949422
LRA01_RWS_A10Re5.5_A10Re6.0,52.400936,4.955018
LRA01_RWS_A10Re6.0_A10Re6.5,52.397618,4.959726
LRA01_RWS_A10Re6.5_A10Re6.9a,52.39366,4.963594
LRA01_RWS_A10Re6.5_A10Re7.0,52.393668,4.963588
LRA01_RWS_A10Re7.0_A10Re7.5,52.389708,4.966957
LRA01_RWS_A10Re7.2b_A10Re7.3b,52.388459,4.967052
LRA01_RWS_A10Re7.3b_A10Re7.5,52.387967,4.968224
LRA01_RWS_A10Re7.5_A10Re8.0,52.385898,4.970105
LRA01_RWS_A10Re8.0_A10Re8.5,52.381563,4.972679
LRA01_RWS_A10Re8.5_A10Re9.0,52.377047,4.973924
LRA01_RWS_A10Re9.0_A10Re9.5,52.372631,4.97383
LRA01_RWS_A10Re9.5_A10Re10.0,52.367982,4.972337
LRA01_RWS_A10Re9.5_A10Re10.1a,52.367832,4.972262
LRA01_RWS_A10Re9.5b_A10Re9.8b,52.368226,4.970588
LRA01_RWS_A10Re9.8b_A10Re10.0,52.365804,4.969835
LRA01_RWS_A1Li5.2_A10Li11.0,52.348703,4.970132
LRA01_RWs_A5R_Raasdorp_Coentunnel,52.350201,4.736522
LRA01_RWS_A8Li0.7_A10Re32.0,52.424172,4.8824
LRA01_RWS_A8Li1.0_A8Li0.7,52.423565,4.878177
LRA01_RWS_A8Li1.5_A8Li1.0,52.426599,4.873685
LRA01_RWS_A8Li2.0_A8Li1.5,52.43041,4.869346
LRA01_RWS_A8R1.0_A8Re1.5,52.423248,4.87627
PFL02_1002,52.372545,5.22489
PNH03_DB247439_via_N247,52.50332,5.039958
PNH03_N235L_0.55-0.00,52.426244,4.95108
PNH03_N235L_4.26-1.92,52.459223,4.951089
PNH03_N235L_7.18-4.81,52.485135,4.949095
PNH03_N236L_3.26-2.50,52.310303,5.001577
PNH03_N236L_4.42-3.26,52.304043,5.013802
PNH03_N236L_5.29-4.45,52.302742,5.026082
PNH03_N236L_6.01-5.29,52.302403,5.036668
PNH03_N236L_9.03-8.53,52.29118,5.074234
PNH03_N247L_29.54-29.24,52.408964,4.940668
PNH03_N247L_30.97-29.54,52.420716,4.949622
PNH03_N247L_31.25-30.97,52.421791,4.953239
PNH03_N247L_34.26-31.25,52.43163,4.99317
PNH03_N247L_34.45-34.26,52.43268,4.995166
PNH03_N247L_34.70-34.45,52.433991,4.998324
PNH03_N247R_29.24-29.54,52.406616,4.938589
PNH03_N247R_29.54-30.97,52.408853,4.940922
PNH03_N247R_30.97-31.25,52.420607,4.949747
PNH03_TR123,52.421572,4.952442
PNH03_TR125,52.431569,4.993025
PNH03_TR127,52.453011,5.028053
PNH03_TR184,52.406422,4.939186
PNH03_TR65,52.437915,4.951228
PNH03_TR67,52.463188,4.949567
PNH03_TR71,52.30461,5.012676
PNH03_VF_HA_20.90-14.64,52.337132,4.845618
PNH03_VF_HA_A4_4.30-0.00,52.326762,4.789854
PNH03_VF_PU_A10_31.20-20.30,52.422699,4.873502
PNH03_VF_PU_A4_1.40-5.45,52.338909,4.826139
PNH04_N247L0312_RD,52.421568,4.952491
PNH04_N247R0296_LA,52.410284,4.941987
PNH04_PNHTR127,52.453004,5.028135
PNH04_PNHTR67,52.463308,4.949467
RWS01_MONIBAS_0011hrl0037ra0,52.34695,4.95838
RWS01_MONIBAS_0011hrl0041ra0,52.35013,4.96084
RWS01_MONIBAS_0011hrl0047ra0,52.35155,4.96594
RWS01_MONIBAS_0011hrl0051rb0,52.34884,4.96988
RWS01_MONIBAS_0011hrl0054ra0,52.34739,4.97358
RWS01_MONIBAS_0011hrl0057ra0,52.34567,4.97745
RWS01_MONIBAS_0011hrr0040ra0,52.35232,4.96319
RWS01_MONIBAS_0040vwh0003ra0,52.33795,4.84096
RWS01_MONIBAS_0040vwh0007ra0,52.33758,4.83581
RWS01_MONIBAS_0040vwn0063ra0,52.31683,4.75321
RWS01_MONIBAS_0041hrl0011ra0,52.33822,4.82939
RWS01_MONIBAS_0041hrl0015ra0,52.33828,4.82358
RWS01_MONIBAS_0041hrl0020ra0,52.33829,4.81701
RWS01_MONIBAS_0041hrl0024ra0,52.33715,4.81101
RWS01_MONIBAS_0041hrl0027ra0,52.33519,4.80709
RWS01_MONIBAS_0041hrl0030ra0,52.33346,4.80424
RWS01_MONIBAS_0041hrl0036ra0,52.32977,4.79806
RWS01_MONIBAS_0041hrl0040ra0,52.3279,4.79368
RWS01_MONIBAS_0041hrl0044ra0,52.32637,4.78785
RWS01_MONIBAS_0041hrl0047ra0,52.32572,4.78338
RWS01_MONIBAS_0041hrl0052ra0,52.32489,4.77679
RWS01_MONIBAS_0041hrl0055ra0,52.32433,4.772
RWS01_MONIBAS_0041hrl0055rb0,52.32441,4.7727
RWS01_MONIBAS_0041hrl0059ra0,52.32352,4.76658
RWS01_MONIBAS_0041hrl0059rb0,52.32361,4.76699
RWS01_MONIBAS_0041hrl0063ra0,52.32217,4.76165
RWS01_MONIBAS_0041hrl0065ra0,52.32058,4.75823
RWS01_MONIBAS_0041hrl0069ra0,52.31851,4.75521
RWS01_MONIBAS_0041hrr0002ra0,52.33851,4.84191
RWS01_MONIBAS_0041hrr0010ra0,52.33886,4.8309
RWS01_MONIBAS_0041hrr0015ra0,52.33887,4.82371
RWS01_MONIBAS_0041hrr0020ra0,52.33866,4.81615
RWS01_MONIBAS_0041hrr0023ra0,52.33785,4.81163
RWS01_MONIBAS_0051hrl0143ra0,52.39346,4.79306
RWS01_MONIBAS_0051hrl0147ra0,52.39346,4.79851
RWS01_MONIBAS_0051hrl0152ra0,52.39313,4.80575
RWS01_MONIBAS_0051hrl0157ra0,52.39221,4.81235
RWS01_MONIBAS_0051hrl0162ra0,52.39193,4.82005
RWS01_MONIBAS_0051hrl0167ra0,52.39194,4.82784
RWS01_MONIBAS_0051hrl0173ra0,52.39229,4.83604
RWS01_MONIBAS_0051hrl0178ra0,52.39524,4.84229
RWS01_MONIBAS_0051hrl0184ra0,52.39979,4.84764
RWS01_MONIBAS_0051hrl0189ra0,52.40297,4.85143
RWS01_MONIBAS_0051hrr0092ra0,52.36405,4.74844
RWS01_MONIBAS_0051hrr0096ra0,52.36628,4.75247
RWS01_MONIBAS_0051hrr0099ra0,52.36801,4.75642
RWS01_MONIBAS_0051hrr0105ra0,52.3715,4.76298
RWS01_MONIBAS_0051hrr0110ra0,52.37538,4.76655
RWS01_MONIBAS_0051hrr0116ra0,52.38012,4.76788
RWS01_MONIBAS_0051hrr0121ra0,52.38495,4.76792
RWS01_MONIBAS_0051hrr0129ra0,52.39121,4.77303
RWS01_MONIBAS_0051hrr0137ra0,52.39334,4.78369
RWS01_MONIBAS_0051hrr0140ra0,52.39332,4.7886
RWS01_MONIBAS_0051hrr0143ra0,52.39334,4.79333
RWS01_MONIBAS_0051hrr0147ra0,52.39336,4.7988
RWS01_MONIBAS_0051hrr0157ra0,52.39208,4.81259
RWS01_MONIBAS_0051hrr0162ra0,52.39184,4.82011
RWS01_MONIBAS_0051hrr0167ra0,52.39185,4.82777
RWS01_MONIBAS_0051hrr0173ra0,52.39214,4.83584
RWS01_MONIBAS_0051hrr0178ra0,52.39497,4.84195
RWS01_MONIBAS_0051hrr0187ra0,52.40122,4.84993
RWS01_MONIBAS_0080vwf0010ra0,52.42337,4.87434
RWS01_MONIBAS_0080vwf0016ra0,52.42764,4.87219
RWS01_MONIBAS_0081hrl0013ra0,52.42603,4.87429
RWS01_MONIBAS_0081hrl0021ra0,52.4316,4.86802
RWS01_MONIBAS_0081hrr0008ra0,52.42209,4.87501
RWS01_MONIBAS_0090vwp0050ra0,52.33131,5.01794
RWS01_MONIBAS_0090vwp0056ra0,52.33143,5.01861
RWS01_MONIBAS_0090vwr0115ra0,52.29997,4.93762
RWS01_MONIBAS_0090vwx0045ra0,52.33386,5.00082
RWS01_MONIBAS_0091hrl0079ra0,52.31233,4.98475
RWS01_MONIBAS_0091hrl0084ra0,52.31011,4.97809
RWS01_MONIBAS_0091hrl0089ra0,52.30765,4.97098
RWS01_MONIBAS_0091hrl0094ra0,52.30579,4.96551
RWS01_MONIBAS_0091hrl0098ra0,52.30356,4.95996
RWS01_MONIBAS_0091hrl0103ra0,52.30139,4.95384
RWS01_MONIBAS_0091hrl0106ra0,52.30018,4.94945
RWS01_MONIBAS_0091hrl0109ra0,52.29901,4.9457
RWS01_MONIBAS_0091hrr0047ra0,52.33139,5.01808
RWS01_MONIBAS_0091hrr0053ra0,52.3288,5.01051
RWS01_MONIBAS_0091hrr0056ra0,52.3265,5.00696
RWS01_MONIBAS_0091hrr0062ra0,52.32221,5.00309
RWS01_MONIBAS_0091hrr0065ra0,52.31999,5.00082
RWS01_MONIBAS_0091hrr0068ra0,52.31782,4.99786
RWS01_MONIBAS_0091hrr0071ra0,52.31581,4.99409
RWS01_MONIBAS_0091hrr0075ra0,52.31381,4.98921
RWS01_MONIBAS_0091hrr0080ra0,52.31197,4.9832
RWS01_MONIBAS_0091hrr0084ra0,52.31019,4.97801
RWS01_MONIBAS_0091hrr0089ra0,52.30779,4.97103
RWS01_MONIBAS_0091hrr0094ra0,52.30583,4.96544
RWS01_MONIBAS_0091hrr0098ra0,52.3036,4.95978
RWS01_MONIBAS_0091hrr0103ra0,52.30161,4.95424
RWS01_MONIBAS_0091hrr0111ra1,52.2987,4.9426
RWS01_MONIBAS_0100vwn0290ra0,52.40665,4.8556
RWS01_MONIBAS_0100vwn0293ra0,52.40898,4.85872
RWS01_MONIBAS_0100vwn0297ra0,52.41242,4.86212
RWS01_MONIBAS_0100vwn0300ra0,52.41469,4.86425
RWS01_MONIBAS_0100vwn0304ra0,52.41717,4.86663
RWS01_MONIBAS_0100vwn0308ra0,52.42064,4.87014
RWS01_MONIBAS_0100vwp0281ra0,52.39755,4.8455
RWS01_MONIBAS_0100vwp0285ra0,52.40446,4.85347
RWS01_MONIBAS_0100vwp0290ra0,52.40697,4.8567
RWS01_MONIBAS_0100vwp0294ra0,52.40971,4.86008
RWS01_MONIBAS_0100vwp0298ra0,52.41245,4.86277
RWS01_MONIBAS_0100vwp0303ra0,52.41613,4.86631
RWS01_MONIBAS_0100vwp0307ra0,52.41903,4.86913
RWS01_MONIBAS_0100vwp0312ra0,52.42194,4.87415
RWS01_MONIBAS_0100vwp0317ra0,52.42613,4.87474
RWS01_MONIBAS_0100vwp0324ra0,52.43125,4.86876
RWS01_MONIBAS_0100vwq0308ra0,52.42003,4.87022
RWS01_MONIBAS_0100vws0166ra0,52.33027,4.90281
RWS01_MONIBAS_0100vws0206ra0,52.339,4.83084
RWS01_MONIBAS_0100vws0212ra0,52.33928,4.83906
RWS01_MONIBAS_0100vws0319ra0,52.42505,4.8851
RWS01_MONIBAS_0100vws0322ra0,52.42527,4.88955
RWS01_MONIBAS_0100vwt0113ra0,52.35298,4.96392
RWS01_MONIBAS_0100vwt0119ra0,52.34936,4.96485
RWS01_MONIBAS_0101hrl0022ra0,52.41757,4.91537
RWS01_MONIBAS_0101hrl0027ra0,52.41486,4.92198
RWS01_MONIBAS_0101hrl0033ra0,52.41153,4.92882
RWS01_MONIBAS_0101hrl0042ra0,52.40743,4.93925
RWS01_MONIBAS_0101hrl0050ra0,52.40383,4.94982
RWS01_MONIBAS_0101hrl0056ra0,52.40017,4.95658
RWS01_MONIBAS_0101hrl0062ra0,52.39588,4.9619
RWS01_MONIBAS_0101hrl0067ra0,52.39223,4.9651
RWS01_MONIBAS_0101hrl0071ra0,52.38903,4.9678
RWS01_MONIBAS_0101hrl0074ra0,52.38614,4.97019
RWS01_MONIBAS_0101hrl0080ra0,52.3813,4.97305
RWS01_MONIBAS_0101hrl0085ra0,52.37712,4.9741
RWS01_MONIBAS_0101hrl0090ra0,52.37244,4.97401
RWS01_MONIBAS_0101hrl0094ra0,52.36905,4.97305
RWS01_MONIBAS_0101hrl0097ra0,52.36578,4.97142
RWS01_MONIBAS_0101hrl0101ra0,52.36287,4.96986
RWS01_MONIBAS_0101hrl0105ra0,52.35941,4.96793
RWS01_MONIBAS_0101hrl0109ra0,52.3563,4.96615
RWS01_MONIBAS_0101hrl0112ra0,52.35334,4.96443
RWS01_MONIBAS_0101hrl0120ra0,52.34668,4.95865
RWS01_MONIBAS_0101hrl0124ra0,52.34366,4.95576
RWS01_MONIBAS_0101hrl0129ra0,52.33986,4.95144
RWS01_MONIBAS_0101hrl0135ra0,52.33754,4.94431
RWS01_MONIBAS_0101hrl0140ra0,52.33554,4.9381
RWS01_MONIBAS_0101hrl0144ra0,52.33373,4.9331
RWS01_MONIBAS_0101hrl0147ra0,52.33219,4.92853
RWS01_MONIBAS_0101hrl0170ra1,52.33221,4.8989
RWS01_MONIBAS_0101hrl0175ra0,52.33535,4.89247
RWS01_MONIBAS_0101hrl0181ra0,52.33806,4.88618
RWS01_MONIBAS_0101hrl0186ra0,52.33859,4.87777
RWS01_MONIBAS_0101hrl0191ra0,52.33844,4.87125
RWS01_MONIBAS_0101hrl0199ra0,52.33784,4.85905
RWS01_MONIBAS_0101hrl0205ra0,52.33743,4.85129
RWS01_MONIBAS_0101hrl0208ra0,52.33719,4.84654
RWS01_MONIBAS_0101hrl0212ra0,52.33861,4.84157
RWS01_MONIBAS_0101hrl0218ra0,52.34444,4.84088
RWS01_MONIBAS_0101hrl0225ra0,52.35086,4.84226
RWS01_MONIBAS_0101hrl0228ra0,52.35351,4.84248
RWS01_MONIBAS_0101hrl0233ra0,52.35803,4.84238
RWS01_MONIBAS_0101hrl0239ra0,52.36293,4.84221
RWS01_MONIBAS_0101hrl0242ra0,52.36571,4.84213
RWS01_MONIBAS_0101hrl0247ra0,52.37044,4.84202
RWS01_MONIBAS_0101hrl0253ra0,52.37585,4.84309
RWS01_MONIBAS_0101hrl0257ra0,52.37937,4.84447
RWS01_MONIBAS_0101hrl0261ra0,52.38315,4.84455
RWS01_MONIBAS_0101hrl0267ra0,52.38806,4.84429
RWS01_MONIBAS_0101hrl0271ra0,52.39219,4.84399
RWS01_MONIBAS_0101hrl0277ra0,52.39711,4.84467
RWS01_MONIBAS_0101hrl0281ra0,52.40014,4.84764
RWS01_MONIBAS_0101hrl0287ra0,52.40469,4.85322
RWS01_MONIBAS_0101hrl0290ra1,52.40656,4.85584
RWS01_MONIBAS_0101hrl0293ra0,52.40891,4.85878
RWS01_MONIBAS_0101hrl0297ra0,52.41233,4.86225
RWS01_MONIBAS_0101hrl0304ra0,52.4171,4.86678
RWS01_MONIBAS_0101hrl0308ra0,52.42061,4.87044
RWS01_MONIBAS_0101hrl0314ra0,52.42341,4.87731
RWS01_MONIBAS_0101hrl0319ra0,52.42491,4.88506
RWS01_MONIBAS_0101hrr0019ra0,52.41869,4.91172
RWS01_MONIBAS_0101hrr0025ra0,52.41586,4.91924
RWS01_MONIBAS_0101hrr0032ra0,52.41223,4.92699
RWS01_MONIBAS_0101hrr0037ra0,52.4094,4.93263
RWS01_MONIBAS_0101hrr0042ra0,52.4073,4.93909
RWS01_MONIBAS_0101hrr0045ra0,52.40606,4.94349
RWS01_MONIBAS_0101hrr0051ra0,52.40304,4.95113
RWS01_MONIBAS_0101hrr0057ra0,52.39925,4.9576
RWS01_MONIBAS_0101hrr0063ra0,52.39482,4.96259
RWS01_MONIBAS_0101hrr0069ra0,52.39007,4.96667
RWS01_MONIBAS_0101hrr0074ra0,52.38609,4.96999
RWS01_MONIBAS_0101hrr0080ra0,52.38135,4.97276
RWS01_MONIBAS_0101hrr0085ra0,52.3771,4.9739
RWS01_MONIBAS_0101hrr0088ra0,52.3736,4.97401
RWS01_MONIBAS_0101hrr0093ra0,52.36932,4.97292
RWS01_MONIBAS_0101hrr0097ra0,52.36582,4.97122
RWS01_MONIBAS_0101hrr0103ra0,52.36142,4.9688
RWS01_MONIBAS_0101hrr0109ra0,52.35635,4.96592
RWS01_MONIBAS_0101hrr0113ra0,52.35297,4.96395
RWS01_MONIBAS_0101hrr0118ra0,52.34895,4.96068
RWS01_MONIBAS_0101hrr0123ra0,52.34497,4.95667
RWS01_MONIBAS_0101hrr0127ra0,52.34133,4.95321
RWS01_MONIBAS_0101hrr0133ra0,52.33818,4.94629
RWS01_MONIBAS_0101hrr0163ra0,52.32945,4.90731
RWS01_MONIBAS_0101hrr0169ra0,52.3323,4.90059
RWS01_MONIBAS_0101hrr0175ra0,52.33616,4.89327
RWS01_MONIBAS_0101hrr0180ra0,52.33871,4.88816
RWS01_MONIBAS_0101hrr0185ra0,52.33971,4.8809
RWS01_MONIBAS_0101hrr0189ra0,52.33951,4.87429
RWS01_MONIBAS_0101hrr0194ra0,52.33919,4.86729
RWS01_MONIBAS_0101hrr0197ra0,52.33892,4.86214
RWS01_MONIBAS_0101hrr0203ra0,52.33854,4.85454
RWS01_MONIBAS_0101hrr0209ra1,52.33807,4.84456
RWS01_MONIBAS_0101hrr0215ra0,52.3417,4.84148
RWS01_MONIBAS_0101hrr0219ra0,52.34554,4.84111
RWS01_MONIBAS_0101hrr0225ra0,52.35082,4.84251
RWS01_MONIBAS_0101hrr0229ra0,52.35396,4.84272
RWS01_MONIBAS_0101hrr0233ra0,52.358,4.8426
RWS01_MONIBAS_0101hrr0239ra0,52.36294,4.84248
RWS01_MONIBAS_0101hrr0244ra0,52.36783,4.84232
RWS01_MONIBAS_0101hrr0249ra0,52.3719,4.84221
RWS01_MONIBAS_0101hrr0253ra0,52.37587,4.84333
RWS01_MONIBAS_0101hrr0258ra0,52.37994,4.84484
RWS01_MONIBAS_0101hrr0261ra0,52.38323,4.84478
RWS01_MONIBAS_0101hrr0267ra0,52.38814,4.84451
RWS01_MONIBAS_0101hrr0271ra0,52.39229,4.84431
RWS01_MONIBAS_0101hrr0276ra0,52.39586,4.84504
RWS01_MONIBAS_0101hrr0281ra0,52.39984,4.84869
RWS01_MONIBAS_0101hrr0285ra0,52.40294,4.85225
RWS01_MONIBAS_0101hrr0290ra0,52.40694,4.85694
RWS01_MONIBAS_0101hrr0294ra0,52.40968,4.86032
RWS01_MONIBAS_0101hrr0301ra0,52.41458,4.86508
RWS01_MONIBAS_0101hrr0305ra0,52.41789,4.86826
RWS01_MONIBAS_0101hrr0308rb0,52.42008,4.87079
RWS01_MONIBAS_0101hrr0312ra0,52.42173,4.87482
RWS01_MONIBAS_0101hrr0317ra0,52.42434,4.88199
RWS04_BHD_12,52.348579,4.970488
RWS04_BHD_14,52.348646,4.970299
RWS04_BHD_19,52.402842,4.850989
RWS04_BHD_31,52.337587,4.814328
RWS04_BHD_32,52.338216,4.831238
RWS04_BHD_34,52.321226,4.914872
RWS04_BHD_37,52.354414,4.965114
RWS04_NWN_D41-rt2,52.322779,4.763549
RWS04_NWN_dBD117_rt2,52.475044,4.650461
RWS04_NWN_dBD118_rt2,52.459621,4.648149
RWS04_RD2_Bermdrip117,52.474413,4.651503
RWS04_RD2bermdrip118,52.457844,4.652091
RWS04_Z_RWSTRN277,52.384935,4.842732
RWS04_Z_RWSTRN278,52.384789,4.840863
RWS04_Z_RWSTRN279,52.384883,4.839342
RWS04_Z_RWSTRN280,52.384684,4.835601
RWS04_Z_RWSTRN281,52.384763,4.833764
RWS04_Z_RWSTRN282,52.3844,4.820246
RWS04_Z_RWSTRN284,52.383805,4.75515
RWS04_Z_RWSTRN286,52.386249,4.741149
RWS08_01,52.336331,4.809126
RWS08_03,52.340135,4.841736
RWS08_04,52.337226,4.812345
RWS08_05,52.403074,4.850873
RWS08_06,52.404602,4.852716
RWS08_09,52.409761,4.859618
RWS08_10,52.406265,4.85506
RWS08_101,52.338691,4.949031
RWS08_102,52.339088,4.950265
RWS08_103,52.338758,4.948937
RWS08_104,52.337972,4.94623
RWS08_12,52.413618,4.86328
RWS09_006,52.338213,4.83225
RWS09_007,52.380006,4.84485
RWS09_011,52.457833,4.838025
RWS09_012,52.42253,4.873196
RWS09_013,52.406229,4.855014
RWS09_014,52.393346,4.803517
RWS09_016,52.406215,4.854996
RWS09_017,52.395324,4.843951
RWS09_018,52.381862,4.844442
RWS09_026,52.351919,4.749448
RWS09_027,52.392875,4.777822
RWS09_028,52.393358,4.793913
RWS09_029,52.452191,4.657444
RWS09_030,52.398764,4.771072
RWS09_031,52.39761,4.778254
RWS09_032,52.397616,4.794278
RWS09_033,52.394287,4.80264
RWS09_034,52.390618,4.802757
RWS09_035,52.389344,4.818488
RWS09_036,52.390601,4.802869
RWS09_037,52.391984,4.802973
RWS09_038,52.394002,4.802995
RWS09_039,52.397848,4.794557
RWS09_040,52.397855,4.778641
RWS09_043,52.386933,4.736033
RWS09_047,52.38382,4.75452
RWS09_048,52.383813,4.758937
RWS09_049,52.384247,4.802945
RWS09_050,52.38437,4.818576
RWS09_051,52.384789,4.842922
RWS09_055,52.384793,4.842831
RWS09_056,52.38491,4.847339
RWS09_057,52.385076,4.855389
RWS09_058,52.385216,4.880851
RWS09_059,52.385078,4.855491
RWS09_062,52.384973,4.844126
RWS09_063,52.384901,4.840427
RWS09_095,52.383778,4.758996
RWS09_096,52.38125,4.759374
RWS09_098,52.36278,4.78662
RWS09_100,52.381241,4.759431
RWS09_101,52.381688,4.797777
RWS09_102,52.381706,4.797835
RWS09_103,52.382418,4.803216
RWS09_104,52.382471,4.806402
RWS09_105,52.383419,4.818351
RWS09_106,52.381359,4.821171
RWS09_108,52.377836,4.845928
RWS09_109,52.380602,4.85456
RWS09_110,52.385076,4.855411
RWS09_111,52.380797,4.854657
RWS09_112,52.378076,4.846206
RWS09_113,52.378049,4.843592
RWS09_114,52.381481,4.821554
RWS09_115,52.383137,4.81901
RWS09_116,52.384334,4.818648
RWS09_117,52.383419,4.819263
RWS09_118,52.382491,4.85131
RWS09_119,52.380812,4.854563
RWS09_120,52.382525,4.851423
RWS09_121,52.384885,4.847587
RWS09_122,52.388236,4.846055
RWS09_123,52.385036,4.8474
RWS09_124,52.382511,4.851334
RWS09_125,52.362679,4.786746
RWS09_126,52.375205,4.818959
RWS09_127,52.381317,4.821214
RWS09_128,52.376138,4.819036
RWS09_129,52.381661,4.797838
RWS09_130,52.375785,4.817892
RWS09_131,52.375754,4.818196
RWS09_132,52.372433,4.841533
RWS09_133,52.3757,4.819738
RWS09_134,52.375932,4.81833
RWS09_135,52.382409,4.806454
RWS09_136,52.382444,4.8032
RWS09_137,52.384214,4.803149
RWS09_138,52.390264,4.794479
RWS09_139,52.397577,4.794346
RWS09_140,52.390538,4.794473
RWS09_141,52.384415,4.803026
RWS09_142,52.384624,4.818858
RWS09_143,52.38782,4.81887
RWS09_144,52.391172,4.818474
RWS09_145,52.387909,4.818662
RWS09_146,52.391706,4.819036
RWS09_147,52.395133,4.808302
RWS09_148,52.395286,4.808666
RWS09_150,52.394026,4.803054
RWS09_151,52.387861,4.818929
RWS09_152,52.385952,4.835071
RWS09_153,52.388756,4.845446
RWS09_154,52.391819,4.855186
RWS09_155,52.388505,4.846394
RWS09_156,52.385954,4.835429
RWS09_157,52.384889,4.834765
RWS09_158,52.385931,4.835359
RWS09_159,52.391545,4.835676
RWS09_160,52.385972,4.835189
RWS09_161,52.391348,4.819344
RWS09_162,52.391598,4.835505
RWS09_163,52.391635,4.843211
RWS09_164,52.39163,4.84521
RWS09_165,52.391846,4.854993
RWS09_166,52.399956,4.849491
RWS09_167,52.392128,4.85518
RWS09_168,52.391982,4.84509
RWS09_169,52.391962,4.843122
RWS09_170,52.391998,4.83638
RWS09_171,52.391711,4.818407
RWS09_172,52.393256,4.86754
RWS09_173,52.400482,4.850342
RWS09_174,52.393219,4.867603
RWS09_175,52.391901,4.855575
RWS09_176,52.39305,4.868853
RWS09_177,52.385035,4.88129
RWS09_178,52.372079,4.841516
RWS09_179,52.374647,4.858478
RWS09_180,52.385029,4.881354
RWS09_181,52.374649,4.858503
RWS09_200,52.38017,4.844929
RWS09_201,52.384136,4.843919
RWS09_202,52.381688,4.797825
RWS09_205,52.397565,4.778307
RWS09_206,52.394555,4.77824
RWS09_207,52.392033,4.778529
RWS09_208,52.394837,4.778528
RWS09_209,52.39197,4.778531
RWS09_210,52.392891,4.777898
RWS09_211,52.394547,4.778528
RWS09_213,52.393361,4.794834
RWS09_214,52.392149,4.802601
RWS09_215,52.394245,4.802538
RWS09_216,52.393381,4.802858
RWS09_217,52.390349,4.794797
RWS09_218,52.390435,4.802475
RWS09_219,52.382475,4.806475
RWS09_220,52.38341,4.81835
RWS09_222,52.374976,4.842975
